{
	"pointResponse":{
		"18":{
			"bindList":[],
			"pointPos":[
				{
					"id":523,
					"name":"沪太909站",
					"type":4,
					"lineId":18,
					"latitude":31.27622,
					"longitude":121.4365,
					"ctime":1.592456087e+12,
					"mtime":1.592456116e+12,
					"isDeleted":0,
					"sortIndex":0
				}
			],
			"stationPos":[
				{
					"id":9,
					"name":"kkk",
					"address":"",
					"latitude":31.26627,
					"longitude":121.46776,
					"ctime":1.590735332e+12,
					"mtime":1.590735332e+12,
					"isDeleted":0,
					"stationType":0
				}
			]
		},
		"19":{
			"bindList":[],
			"pointPos":[
				{
					"id":524,
					"name":"沪太935站",
					"type":4,
					"lineId":19,
					"latitude":31.27286,
					"longitude":121.43338,
					"ctime":1.592456148e+12,
					"mtime":1.592456174e+12,
					"isDeleted":0,
					"sortIndex":0
				}
			],
			"stationPos":[
				{
					"id":9,
					"name":"kkk",
					"address":"",
					"latitude":31.26627,
					"longitude":121.46776,
					"ctime":1.590735332e+12,
					"mtime":1.590735332e+12,
					"isDeleted":0,
					"stationType":0
				}
			]
		},
		"26":{
			"bindList":[
				[
					{
						"latitude":31.28452,
						"longitude":121.43566,
						"strokeStyle":"solid"
					},
					{
						"latitude":31.28555,
						"longitude":121.43536,
						"strokeStyle":"solid"
					}
				],
				[
					{
						"latitude":31.28555,
						"longitude":121.43536,
						"strokeStyle":"solid"
					},
					{
						"latitude":31.28729,
						"longitude":121.43399,
						"strokeStyle":"solid"
					}
				],
				[
					{
						"latitude":31.28729,
						"longitude":121.43399,
						"strokeStyle":"solid"
					},
					{
						"latitude":31.28903,
						"longitude":121.43407,
						"strokeStyle":"solid"
					}
				]
			],
			"pointPos":[
				{
					"id":551,
					"name":"682\/01",
					"type":2,
					"lineId":26,
					"latitude":31.28452,
					"longitude":121.43566,
					"ctime":1.603760685e+12,
					"mtime":1.603760859e+12,
					"isDeleted":0,
					"sortIndex":0
				},
				{
					"id":552,
					"name":"682\/02",
					"type":0,
					"lineId":26,
					"latitude":31.28555,
					"longitude":121.43536,
					"ctime":1.603760872e+12,
					"mtime":1.603760994e+12,
					"isDeleted":0,
					"sortIndex":1
				},
				{
					"id":553,
					"name":"682\/03",
					"type":0,
					"lineId":26,
					"latitude":31.28729,
					"longitude":121.43399,
					"ctime":1.603760895e+12,
					"mtime":1.603760982e+12,
					"isDeleted":0,
					"sortIndex":2
				},
				{
					"id":554,
					"name":"682\/10",
					"type":2,
					"lineId":26,
					"latitude":31.28903,
					"longitude":121.43407,
					"ctime":1.60376093e+12,
					"mtime":1.603760978e+12,
					"isDeleted":0,
					"sortIndex":3
				}
			],
			"stationPos":[
				{
					"id":9,
					"name":"kkk",
					"address":"",
					"latitude":31.26627,
					"longitude":121.46776,
					"ctime":1.590735332e+12,
					"mtime":1.590735332e+12,
					"isDeleted":0,
					"stationType":0
				}
			]
		},
		"27":{
			"bindList":[
				[
					{
						"latitude":31.27307,
						"longitude":121.37206,
						"strokeStyle":"solid"
					},
					{
						"latitude":31.27307,
						"longitude":121.37206,
						"strokeStyle":"solid"
					}
				]
			],
			"pointPos":[
				{
					"id":557,
					"name":"3595\/09",
					"type":2,
					"lineId":27,
					"latitude":31.27164,
					"longitude":121.37662,
					"ctime":1.60376202e+12,
					"mtime":1.603762113e+12,
					"isDeleted":0,
					"sortIndex":0
				},
				{
					"id":558,
					"name":"3593\/03",
					"type":0,
					"lineId":27,
					"latitude":31.27307,
					"longitude":121.37206,
					"ctime":1.603762802e+12,
					"mtime":1.603762842e+12,
					"isDeleted":0,
					"sortIndex":1
				}
			],
			"stationPos":[
				{
					"id":9,
					"name":"kkk",
					"address":"",
					"latitude":31.26627,
					"longitude":121.46776,
					"ctime":1.590735332e+12,
					"mtime":1.590735332e+12,
					"isDeleted":0,
					"stationType":0
				}
			]
		},
		"51":{
			"pointPos":[
				{
					"id":1001,
					"name":"8598南陈南大",
					"type":1,
					"lineId":51,
					"latitude":121.3995112,
					"longitude":31.30066441,
					"ctime":1.603760685e+12,
					"mtime":1.603760859e+12,
					"isDeleted":0,
					"sortIndex":0
				},
				{
					"id":1002,
					"name":"南19002",
					"type":2,
					"lineId":51,
					"latitude":121.3995407,
					"longitude":31.30096509,
					"ctime":1.603760685e+12,
					"mtime":1.603760859e+12,
					"isDeleted":0,
					"sortIndex":1
				},
				{
					"id":1003,
					"name":"02522南大三号桥西",
					"type":3,
					"lineId":51,
					"latitude":121.3996979,
					"longitude":31.30134963,
					"ctime":1.603760685e+12,
					"mtime":1.603760859e+12,
					"isDeleted":0,
					"sortIndex":2
				},
				{
					"id":1004,
					"name":"南19007",
					"type":0,
					"lineId":51,
					"latitude":121.4000231,
					"longitude":31.30234926,
					"ctime":1.603760685e+12,
					"mtime":1.603760859e+12,
					"isDeleted":0,
					"sortIndex":3
				},
				{
					"id":1005,
					"name":"00489南陈29",
					"type":3,
					"lineId":51,
					"latitude":121.4002047,
					"longitude":31.30290824,
					"ctime":1.603760685e+12,
					"mtime":1.603760859e+12,
					"isDeleted":0,
					"sortIndex":4
				},
				{
					"id":1006,
					"name":"00209南陈小石桥南",
					"type":3,
					"lineId":51,
					"latitude":121.4003518,
					"longitude":31.30335843,
					"ctime":1.603760685e+12,
					"mtime":1.603760859e+12,
					"isDeleted":0,
					"sortIndex":5
				},
				{
					"id":1007,
					"name":"A4409南陈公交甲",
					"type":3,
					"lineId":51,
					"latitude":121.4004947,
					"longitude":31.30379082,
					"ctime":1.603760685e+12,
					"mtime":1.603760859e+12,
					"isDeleted":0,
					"sortIndex":6
				},
				{
					"id":1008,
					"name":"6985南陈环镇北",
					"type":1,
					"lineId":51,
					"latitude":121.4005941,
					"longitude":31.30407953,
					"ctime":1.603760685e+12,
					"mtime":1.603760859e+12,
					"isDeleted":0,
					"sortIndex":7
				},
				{
					"id":1009,
					"name":"02524南陈小石桥",
					"type":3,
					"lineId":51,
					"latitude":121.4006633,
					"longitude":31.30439191,
					"ctime":1.603760685e+12,
					"mtime":1.603760859e+12,
					"isDeleted":0,
					"sortIndex":8
				},
				{
					"id":1010,
					"name":"南194014",
					"type":0,
					"lineId":51,
					"latitude":121.4007936,
					"longitude":31.3046939,
					"ctime":1.603760685e+12,
					"mtime":1.603760859e+12,
					"isDeleted":0,
					"sortIndex":9
				},
				{
					"id":1011,
					"name":"02530南陈小石桥北",
					"type":3,
					"lineId":51,
					"latitude":121.4010539,
					"longitude":31.30545944,
					"ctime":1.603760685e+12,
					"mtime":1.603760859e+12,
					"isDeleted":0,
					"sortIndex":10
				},
				{
					"id":1012,
					"name":"02543南陈环镇",
					"type":3,
					"lineId":51,
					"latitude":121.4016054,
					"longitude":31.30703769,
					"ctime":1.603760685e+12,
					"mtime":1.603760859e+12,
					"isDeleted":0,
					"sortIndex":11
				},
				{
					"id":1013,
					"name":"B5860联西村委会乙",
					"type":1,
					"lineId":51,
					"latitude":121.4018429,
					"longitude":31.30772656,
					"ctime":1.603760685e+12,
					"mtime":1.603760859e+12,
					"isDeleted":0,
					"sortIndex":12
				},
				{
					"id":1014,
					"name":"南19024",
					"type":0,
					"lineId":51,
					"latitude":121.4019168,
					"longitude":31.30795368,
					"ctime":1.603760685e+12,
					"mtime":1.603760859e+12,
					"isDeleted":0,
					"sortIndex":13
				},
				{
					"id":1015,
					"name":"08896大场中学",
					"type":3,
					"lineId":51,
					"latitude":121.404929,
					"longitude":31.30810933,
					"ctime":1.603760685e+12,
					"mtime":1.603760859e+12,
					"isDeleted":0,
					"sortIndex":14
				},
				{
					"id":1016,
					"name":"B3648环镇700南乙",
					"type":3,
					"lineId":51,
					"latitude":121.4052289,
					"longitude":31.30820786,
					"ctime":1.603760685e+12,
					"mtime":1.603760859e+12,
					"isDeleted":0,
					"sortIndex":15
				},
				{
					"id":1017,
					"name":"B3649环镇700乙",
					"type":3,
					"lineId":51,
					"latitude":121.4053178,
					"longitude":31.30822429,
					"ctime":1.603760685e+12,
					"mtime":1.603760859e+12,
					"isDeleted":0,
					"sortIndex":16
				},
				{
					"id":1018,
					"name":"B4415乾溪泵站乙",
					"type":3,
					"lineId":51,
					"latitude":121.4055788,
					"longitude":31.30824757,
					"ctime":1.603760685e+12,
					"mtime":1.603760859e+12,
					"isDeleted":0,
					"sortIndex":17
				},
				{
					"id":1019,
					"name":"07088环镇500弄6",
					"type":3,
					"lineId":51,
					"latitude":121.405666,
					"longitude":31.30825443,
					"ctime":1.603760685e+12,
					"mtime":1.603760859e+12,
					"isDeleted":0,
					"sortIndex":18
				},
				{
					"id":1020,
					"name":"B3647环镇600乙",
					"type":3,
					"lineId":51,
					"latitude":121.406063,
					"longitude":31.308288,
					"ctime":1.603760685e+12,
					"mtime":1.603760859e+12,
					"isDeleted":0,
					"sortIndex":19
				},
				{
					"id":1021,
					"name":"B3646环镇500乙",
					"type":3,
					"lineId":51,
					"latitude":121.406258,
					"longitude":31.30830307,
					"ctime":1.603760685e+12,
					"mtime":1.603760859e+12,
					"isDeleted":0,
					"sortIndex":20
				},
				{
					"id":1022,
					"name":"A3652环镇北甲",
					"type":3,
					"lineId":51,
					"latitude":121.4063253,
					"longitude":31.30830923,
					"ctime":1.603760685e+12,
					"mtime":1.603760859e+12,
					"isDeleted":0,
					"sortIndex":21
				},
				{
					"id":1023,
					"name":"8372环镇北",
					"type":1,
					"lineId":51,
					"latitude":121.4064145,
					"longitude":31.30831943,
					"ctime":1.603760685e+12,
					"mtime":1.603760859e+12,
					"isDeleted":0,
					"sortIndex":22
				},
				{
					"id":1024,
					"name":"06083大场联西村",
					"type":3,
					"lineId":51,
					"latitude":121.3973974,
					"longitude":31.30204791,
					"ctime":1.603760685e+12,
					"mtime":1.603760859e+12,
					"isDeleted":0,
					"sortIndex":23
				},
				{
					"id":1025,
					"name":"南19111",
					"type":0,
					"lineId":51,
					"latitude":121.3962393,
					"longitude":31.30265941,
					"ctime":1.603760685e+12,
					"mtime":1.603760859e+12,
					"isDeleted":0,
					"sortIndex":24
				},
				{
					"id":1026,
					"name":"02521王石前南陈",
					"type":3,
					"lineId":51,
					"latitude":121.3987048,
					"longitude":31.30278832,
					"ctime":1.603760685e+12,
					"mtime":1.603760859e+12,
					"isDeleted":0,
					"sortIndex":25
				},
				{
					"id":1027,
					"name":"02510王石前",
					"type":3,
					"lineId":51,
					"latitude":121.3955367,
					"longitude":31.30372113,
					"ctime":1.603760685e+12,
					"mtime":1.603760859e+12,
					"isDeleted":0,
					"sortIndex":26
				},
				{
					"id":1028,
					"name":"南19014-1",
					"type":0,
					"lineId":51,
					"latitude":121.4006783,
					"longitude":31.30472056,
					"ctime":1.603760685e+12,
					"mtime":1.603760859e+12,
					"isDeleted":0,
					"sortIndex":27
				},
				{
					"id":1029,
					"name":"6360南陈东小石桥",
					"type":1,
					"lineId":51,
					"latitude":121.4007177,
					"longitude":31.30484986,
					"ctime":1.603760685e+12,
					"mtime":1.603760859e+12,
					"isDeleted":0,
					"sortIndex":28
				}
			],
			"stationPos":[
				{
					"id":9,
					"name":"kkk",
					"address":"",
					"latitude":31.26627,
					"longitude":121.46776,
					"ctime":1.590735332e+12,
					"mtime":1.590735332e+12,
					"isDeleted":0,
					"stationType":0
				}
			],
			"bindList":[
				[
					{
						"latitude":121.3995112,
						"longitude":31.30066441,
						"strokeStyle":"solid"
					},
					{
						"latitude":121.3995407,
						"longitude":31.30096509,
						"strokeStyle":"solid"
					}
				],
				[
					{
						"latitude":121.3995407,
						"longitude":31.30096509,
						"strokeStyle":"solid"
					},
					{
						"latitude":121.3996979,
						"longitude":31.30134963,
						"strokeStyle":"solid"
					}
				],
				[
					{
						"latitude":121.3996979,
						"longitude":31.30134963,
						"strokeStyle":"solid"
					},
					{
						"latitude":121.4000231,
						"longitude":31.30234926,
						"strokeStyle":"solid"
					}
				],
				[
					{
						"latitude":121.4000231,
						"longitude":31.30234926,
						"strokeStyle":"solid"
					},
					{
						"latitude":121.4002047,
						"longitude":31.30290824,
						"strokeStyle":"solid"
					}
				],
				[
					{
						"latitude":121.4002047,
						"longitude":31.30290824,
						"strokeStyle":"solid"
					},
					{
						"latitude":121.4003518,
						"longitude":31.30335843,
						"strokeStyle":"solid"
					}
				],
				[
					{
						"latitude":121.4003518,
						"longitude":31.30335843,
						"strokeStyle":"solid"
					},
					{
						"latitude":121.4004947,
						"longitude":31.30379082,
						"strokeStyle":"solid"
					}
				],
				[
					{
						"latitude":121.4004947,
						"longitude":31.30379082,
						"strokeStyle":"solid"
					},
					{
						"latitude":121.4005941,
						"longitude":31.30407953,
						"strokeStyle":"solid"
					}
				],
				[
					{
						"latitude":121.4005941,
						"longitude":31.30407953,
						"strokeStyle":"solid"
					},
					{
						"latitude":121.4006633,
						"longitude":31.30439191,
						"strokeStyle":"solid"
					}
				],
				[
					{
						"latitude":121.4006633,
						"longitude":31.30439191,
						"strokeStyle":"solid"
					},
					{
						"latitude":121.4007936,
						"longitude":31.3046939,
						"strokeStyle":"solid"
					}
				],
				[
					{
						"latitude":121.4007936,
						"longitude":31.3046939,
						"strokeStyle":"solid"
					},
					{
						"latitude":121.4010539,
						"longitude":31.30545944,
						"strokeStyle":"solid"
					}
				],
				[
					{
						"latitude":121.4010539,
						"longitude":31.30545944,
						"strokeStyle":"solid"
					},
					{
						"latitude":121.4016054,
						"longitude":31.30703769,
						"strokeStyle":"solid"
					}
				],
				[
					{
						"latitude":121.4016054,
						"longitude":31.30703769,
						"strokeStyle":"solid"
					},
					{
						"latitude":121.4018429,
						"longitude":31.30772656,
						"strokeStyle":"solid"
					}
				],
				[
					{
						"latitude":121.4018429,
						"longitude":31.30772656,
						"strokeStyle":"solid"
					},
					{
						"latitude":121.4019168,
						"longitude":31.30795368,
						"strokeStyle":"solid"
					}
				],
				[
					{
						"latitude":121.4019168,
						"longitude":31.30795368,
						"strokeStyle":"solid"
					},
					{
						"latitude":121.404929,
						"longitude":31.30810933,
						"strokeStyle":"solid"
					}
				],
				[
					{
						"latitude":121.404929,
						"longitude":31.30810933,
						"strokeStyle":"solid"
					},
					{
						"latitude":121.4052289,
						"longitude":31.30820786,
						"strokeStyle":"solid"
					}
				],
				[
					{
						"latitude":121.4052289,
						"longitude":31.30820786,
						"strokeStyle":"solid"
					},
					{
						"latitude":121.4053178,
						"longitude":31.30822429,
						"strokeStyle":"solid"
					}
				],
				[
					{
						"latitude":121.4053178,
						"longitude":31.30822429,
						"strokeStyle":"solid"
					},
					{
						"latitude":121.4055788,
						"longitude":31.30824757,
						"strokeStyle":"solid"
					}
				],
				[
					{
						"latitude":121.4055788,
						"longitude":31.30824757,
						"strokeStyle":"solid"
					},
					{
						"latitude":121.405666,
						"longitude":31.30825443,
						"strokeStyle":"solid"
					}
				],
				[
					{
						"latitude":121.405666,
						"longitude":31.30825443,
						"strokeStyle":"solid"
					},
					{
						"latitude":121.406063,
						"longitude":31.308288,
						"strokeStyle":"solid"
					}
				],
				[
					{
						"latitude":121.406063,
						"longitude":31.308288,
						"strokeStyle":"solid"
					},
					{
						"latitude":121.406258,
						"longitude":31.30830307,
						"strokeStyle":"solid"
					}
				],
				[
					{
						"latitude":121.406258,
						"longitude":31.30830307,
						"strokeStyle":"solid"
					},
					{
						"latitude":121.4063253,
						"longitude":31.30830923,
						"strokeStyle":"solid"
					}
				],
				[
					{
						"latitude":121.4063253,
						"longitude":31.30830923,
						"strokeStyle":"solid"
					},
					{
						"latitude":121.4064145,
						"longitude":31.30831943,
						"strokeStyle":"solid"
					}
				],
				[
					{
						"latitude":121.3996979,
						"longitude":31.30134963,
						"strokeStyle":"solid"
					},
					{
						"latitude":121.3973974,
						"longitude":31.30204791,
						"strokeStyle":"solid"
					}
				],
				[
					{
						"latitude":121.3973974,
						"longitude":31.30204791,
						"strokeStyle":"solid"
					},
					{
						"latitude":121.3962393,
						"longitude":31.30265941,
						"strokeStyle":"solid"
					}
				],
				[
					{
						"latitude":121.4000231,
						"longitude":31.30234926,
						"strokeStyle":"solid"
					},
					{
						"latitude":121.3987048,
						"longitude":31.30278832,
						"strokeStyle":"solid"
					}
				],
				[
					{
						"latitude":121.3987048,
						"longitude":31.30278832,
						"strokeStyle":"solid"
					},
					{
						"latitude":121.3955367,
						"longitude":31.30372113,
						"strokeStyle":"solid"
					}
				],
				[
					{
						"latitude":121.4007936,
						"longitude":31.3046939,
						"strokeStyle":"solid"
					},
					{
						"latitude":121.4006783,
						"longitude":31.30472056,
						"strokeStyle":"solid"
					}
				],
				[
					{
						"latitude":121.4006783,
						"longitude":31.30472056,
						"strokeStyle":"solid"
					},
					{
						"latitude":121.4007177,
						"longitude":31.30484986,
						"strokeStyle":"solid"
					}
				]
			]
		},
		"52":{
			"pointPos":[
				{
					"id":1030,
					"name":"8466国庆曲阜西",
					"type":1,
					"lineId":52,
					"latitude":31.24223525,
					"longitude":121.4682556,
					"ctime":1.603760685e+12,
					"mtime":1.603760859e+12,
					"isDeleted":0,
					"sortIndex":0
				},
				{
					"id":1031,
					"name":"01018国庆蒙古",
					"type":3,
					"lineId":52,
					"latitude":31.24251035,
					"longitude":121.4681584,
					"ctime":1.603760685e+12,
					"mtime":1.603760859e+12,
					"isDeleted":0,
					"sortIndex":1
				},
				{
					"id":1032,
					"name":"晋25003",
					"type":2,
					"lineId":52,
					"latitude":31.24305633,
					"longitude":121.468003,
					"ctime":1.603760685e+12,
					"mtime":1.603760859e+12,
					"isDeleted":0,
					"sortIndex":2
				},
				{
					"id":1033,
					"name":"晋25005",
					"type":0,
					"lineId":52,
					"latitude":31.24371453,
					"longitude":121.4677504,
					"ctime":1.603760685e+12,
					"mtime":1.603760859e+12,
					"isDeleted":0,
					"sortIndex":3
				},
				{
					"id":1034,
					"name":"晋25209",
					"type":0,
					"lineId":52,
					"latitude":31.24411404,
					"longitude":121.4676354,
					"ctime":1.603760685e+12,
					"mtime":1.603760859e+12,
					"isDeleted":0,
					"sortIndex":4
				},
				{
					"id":1035,
					"name":"B0887晋元228乙",
					"type":3,
					"lineId":52,
					"latitude":31.24427714,
					"longitude":121.469185,
					"ctime":1.603760685e+12,
					"mtime":1.603760859e+12,
					"isDeleted":0,
					"sortIndex":5
				},
				{
					"id":1036,
					"name":"01017新疆西藏北",
					"type":3,
					"lineId":52,
					"latitude":31.24448613,
					"longitude":121.4702327,
					"ctime":1.603760685e+12,
					"mtime":1.603760859e+12,
					"isDeleted":0,
					"sortIndex":6
				},
				{
					"id":1037,
					"name":"8461晋元海宁",
					"type":1,
					"lineId":52,
					"latitude":31.24421589,
					"longitude":121.4695559,
					"ctime":1.603760685e+12,
					"mtime":1.603760859e+12,
					"isDeleted":0,
					"sortIndex":7
				},
				{
					"id":1038,
					"name":"01051新疆国庆",
					"type":3,
					"lineId":52,
					"latitude":31.24364752,
					"longitude":121.4676168,
					"ctime":1.603760685e+12,
					"mtime":1.603760859e+12,
					"isDeleted":0,
					"sortIndex":8
				},
				{
					"id":1039,
					"name":"8463新疆国庆",
					"type":1,
					"lineId":52,
					"latitude":31.243625,
					"longitude":121.4675531,
					"ctime":1.603760685e+12,
					"mtime":1.603760859e+12,
					"isDeleted":0,
					"sortIndex":9
				},
				{
					"id":1040,
					"name":"晋25212",
					"type":0,
					"lineId":52,
					"latitude":31.24409566,
					"longitude":121.4667232,
					"ctime":1.603760685e+12,
					"mtime":1.603760859e+12,
					"isDeleted":0,
					"sortIndex":10
				},
				{
					"id":1041,
					"name":"晋25215",
					"type":0,
					"lineId":52,
					"latitude":31.2441131,
					"longitude":121.4657631,
					"ctime":1.603760685e+12,
					"mtime":1.603760859e+12,
					"isDeleted":0,
					"sortIndex":11
				},
				{
					"id":1042,
					"name":"01004天目新民支",
					"type":3,
					"lineId":52,
					"latitude":31.24425495,
					"longitude":121.4650659,
					"ctime":1.603760685e+12,
					"mtime":1.603760859e+12,
					"isDeleted":0,
					"sortIndex":12
				},
				{
					"id":1043,
					"name":"8579南星天目",
					"type":1,
					"lineId":52,
					"latitude":31.24407403,
					"longitude":121.4655696,
					"ctime":1.603760685e+12,
					"mtime":1.603760859e+12,
					"isDeleted":0,
					"sortIndex":13
				},
				{
					"id":1044,
					"name":"8469蒙古乌镇",
					"type":1,
					"lineId":52,
					"latitude":31.2427349,
					"longitude":121.4676502,
					"ctime":1.603760685e+12,
					"mtime":1.603760859e+12,
					"isDeleted":0,
					"sortIndex":14
				},
				{
					"id":1045,
					"name":"8460蒙古国庆",
					"type":1,
					"lineId":52,
					"latitude":31.2428458,
					"longitude":121.4683482,
					"ctime":1.603760685e+12,
					"mtime":1.603760859e+12,
					"isDeleted":0,
					"sortIndex":15
				}
			],
			"stationPos":[
				{
					"id":9,
					"name":"kkk",
					"address":"",
					"latitude":31.26627,
					"longitude":121.46776,
					"ctime":1.590735332e+12,
					"mtime":1.590735332e+12,
					"isDeleted":0,
					"stationType":0
				}
			],
			"bindList":[
				[
					{
						"latitude":31.24223525,
						"longitude":121.4682556,
						"strokeStyle":"solid"
					},
					{
						"latitude":31.24251035,
						"longitude":121.4681584,
						"strokeStyle":"solid"
					}
				],
				[
					{
						"latitude":31.24251035,
						"longitude":121.4681584,
						"strokeStyle":"solid"
					},
					{
						"latitude":31.24305633,
						"longitude":121.468003,
						"strokeStyle":"solid"
					}
				],
				[
					{
						"latitude":31.24305633,
						"longitude":121.468003,
						"strokeStyle":"solid"
					},
					{
						"latitude":31.24371453,
						"longitude":121.4677504,
						"strokeStyle":"solid"
					}
				],
				[
					{
						"latitude":31.24371453,
						"longitude":121.4677504,
						"strokeStyle":"solid"
					},
					{
						"latitude":31.24411404,
						"longitude":121.4676354,
						"strokeStyle":"solid"
					}
				],
				[
					{
						"latitude":31.24411404,
						"longitude":121.4676354,
						"strokeStyle":"solid"
					},
					{
						"latitude":31.24427714,
						"longitude":121.469185,
						"strokeStyle":"solid"
					}
				],
				[
					{
						"latitude":31.24427714,
						"longitude":121.469185,
						"strokeStyle":"solid"
					},
					{
						"latitude":31.24448613,
						"longitude":121.4702327,
						"strokeStyle":"solid"
					}
				],
				[
					{
						"latitude":31.24448613,
						"longitude":121.4702327,
						"strokeStyle":"solid"
					},
					{
						"latitude":31.24421589,
						"longitude":121.4695559,
						"strokeStyle":"solid"
					}
				],
				[
					{
						"latitude":31.24371453,
						"longitude":121.4677504,
						"strokeStyle":"solid"
					},
					{
						"latitude":31.24364752,
						"longitude":121.4676168,
						"strokeStyle":"solid"
					}
				],
				[
					{
						"latitude":31.24364752,
						"longitude":121.4676168,
						"strokeStyle":"solid"
					},
					{
						"latitude":31.243625,
						"longitude":121.4675531,
						"strokeStyle":"solid"
					}
				],
				[
					{
						"latitude":31.24411404,
						"longitude":121.4676354,
						"strokeStyle":"solid"
					},
					{
						"latitude":31.24409566,
						"longitude":121.4667232,
						"strokeStyle":"solid"
					}
				],
				[
					{
						"latitude":31.24409566,
						"longitude":121.4667232,
						"strokeStyle":"solid"
					},
					{
						"latitude":31.2441131,
						"longitude":121.4657631,
						"strokeStyle":"solid"
					}
				],
				[
					{
						"latitude":31.2441131,
						"longitude":121.4657631,
						"strokeStyle":"solid"
					},
					{
						"latitude":31.24425495,
						"longitude":121.4650659,
						"strokeStyle":"solid"
					}
				],
				[
					{
						"latitude":31.24425495,
						"longitude":121.4650659,
						"strokeStyle":"solid"
					},
					{
						"latitude":31.24407403,
						"longitude":121.4655696,
						"strokeStyle":"solid"
					}
				],
				[
					{
						"latitude":31.2427349,
						"longitude":121.4676502,
						"strokeStyle":"solid"
					},
					{
						"latitude":31.2428458,
						"longitude":121.4683482,
						"strokeStyle":"solid"
					}
				]
			]
		},
		"53":{
			"pointPos":[
				{
					"id":1046,
					"name":"南20301（45走马塘北出线）",
					"type":2,
					"lineId":53,
					"latitude":31.30207409,
					"longitude":121.3809364,
					"ctime":1.603760685e+12,
					"mtime":1.603760859e+12,
					"isDeleted":0,
					"sortIndex":0
				},
				{
					"id":1047,
					"name":"02497化工南大库",
					"type":3,
					"lineId":53,
					"latitude":31.30212452,
					"longitude":121.3811199,
					"ctime":1.603760685e+12,
					"mtime":1.603760859e+12,
					"isDeleted":0,
					"sortIndex":1
				},
				{
					"id":1048,
					"name":"南20303",
					"type":2,
					"lineId":53,
					"latitude":31.30223599,
					"longitude":121.3815713,
					"ctime":1.603760685e+12,
					"mtime":1.603760859e+12,
					"isDeleted":0,
					"sortIndex":2
				}
			],
			"stationPos":[
				{
					"id":9,
					"name":"kkk",
					"address":"",
					"latitude":31.26627,
					"longitude":121.46776,
					"ctime":1.590735332e+12,
					"mtime":1.590735332e+12,
					"isDeleted":0,
					"stationType":0
				}
			],
			"bindList":[
				[
					{
						"latitude":31.30207409,
						"longitude":121.3809364,
						"strokeStyle":"solid"
					},
					{
						"latitude":31.30212452,
						"longitude":121.3811199,
						"strokeStyle":"solid"
					}
				],
				[
					{
						"latitude":31.30212452,
						"longitude":121.3811199,
						"strokeStyle":"solid"
					},
					{
						"latitude":31.30223599,
						"longitude":121.3815713,
						"strokeStyle":"solid"
					}
				]
			]
		},
		"54":{
			"pointPos":[
				{
					"id":1049,
					"name":"8177大统秣陵",
					"type":1,
					"lineId":54,
					"latitude":31.24741005,
					"longitude":121.4602289,
					"ctime":1.603760685e+12,
					"mtime":1.603760859e+12,
					"isDeleted":0,
					"sortIndex":0
				},
				{
					"id":1050,
					"name":"00970大统秣陵",
					"type":3,
					"lineId":54,
					"latitude":31.24713742,
					"longitude":121.4602683,
					"ctime":1.603760685e+12,
					"mtime":1.603760859e+12,
					"isDeleted":0,
					"sortIndex":1
				},
				{
					"id":1051,
					"name":"00973番瓜弄18",
					"type":3,
					"lineId":54,
					"latitude":31.24703407,
					"longitude":121.4602713,
					"ctime":1.603760685e+12,
					"mtime":1.603760859e+12,
					"isDeleted":0,
					"sortIndex":2
				},
				{
					"id":1052,
					"name":"00972番瓜弄15",
					"type":3,
					"lineId":54,
					"latitude":31.24694489,
					"longitude":121.4602814,
					"ctime":1.603760685e+12,
					"mtime":1.603760859e+12,
					"isDeleted":0,
					"sortIndex":3
				},
				{
					"id":1053,
					"name":"00971番瓜弄60",
					"type":3,
					"lineId":54,
					"latitude":31.24680605,
					"longitude":121.4602965,
					"ctime":1.603760685e+12,
					"mtime":1.603760859e+12,
					"isDeleted":0,
					"sortIndex":4
				},
				{
					"id":1054,
					"name":"24203",
					"type":2,
					"lineId":54,
					"latitude":31.24667428,
					"longitude":121.4603218,
					"ctime":1.603760685e+12,
					"mtime":1.603760859e+12,
					"isDeleted":0,
					"sortIndex":5
				},
				{
					"id":1055,
					"name":"002",
					"type":2,
					"lineId":54,
					"latitude":31.24381232,
					"longitude":121.4607815,
					"ctime":1.603760685e+12,
					"mtime":1.603760859e+12,
					"isDeleted":0,
					"sortIndex":6
				},
				{
					"id":1056,
					"name":"000",
					"type":0,
					"lineId":54,
					"latitude":31.24408811,
					"longitude":121.4604613,
					"ctime":1.603760685e+12,
					"mtime":1.603760859e+12,
					"isDeleted":0,
					"sortIndex":7
				},
				{
					"id":1057,
					"name":"A0966汉中28西甲",
					"type":3,
					"lineId":54,
					"latitude":31.24391258,
					"longitude":121.4601768,
					"ctime":1.603760685e+12,
					"mtime":1.603760859e+12,
					"isDeleted":0,
					"sortIndex":8
				},
				{
					"id":1058,
					"name":"24006（梅17汉中出线）",
					"type":2,
					"lineId":54,
					"latitude":31.24385888,
					"longitude":121.460063,
					"ctime":1.603760685e+12,
					"mtime":1.603760859e+12,
					"isDeleted":0,
					"sortIndex":9
				},
				{
					"id":1059,
					"name":"24005",
					"type":2,
					"lineId":54,
					"latitude":31.243812,
					"longitude":121.4599584,
					"ctime":1.603760685e+12,
					"mtime":1.603760859e+12,
					"isDeleted":0,
					"sortIndex":10
				},
				{
					"id":1060,
					"name":"A0967汉中28甲",
					"type":3,
					"lineId":54,
					"latitude":31.24377419,
					"longitude":121.4598786,
					"ctime":1.603760685e+12,
					"mtime":1.603760859e+12,
					"isDeleted":0,
					"sortIndex":11
				},
				{
					"id":1061,
					"name":"8176汉中梅园",
					"type":1,
					"lineId":54,
					"latitude":31.2432548,
					"longitude":121.459021,
					"ctime":1.603760685e+12,
					"mtime":1.603760859e+12,
					"isDeleted":0,
					"sortIndex":12
				},
				{
					"id":1062,
					"name":"B0969华盛乙",
					"type":3,
					"lineId":54,
					"latitude":31.2431639,
					"longitude":121.4588958,
					"ctime":1.603760685e+12,
					"mtime":1.603760859e+12,
					"isDeleted":0,
					"sortIndex":13
				},
				{
					"id":1063,
					"name":"梅02003",
					"type":0,
					"lineId":54,
					"latitude":31.24294945,
					"longitude":121.4585059,
					"ctime":1.603760685e+12,
					"mtime":1.603760859e+12,
					"isDeleted":0,
					"sortIndex":14
				},
				{
					"id":1064,
					"name":"00958汉中恒丰东",
					"type":3,
					"lineId":54,
					"latitude":31.24262063,
					"longitude":121.4582907,
					"ctime":1.603760685e+12,
					"mtime":1.603760859e+12,
					"isDeleted":0,
					"sortIndex":15
				},
				{
					"id":1065,
					"name":"A0883苏河湾大厦甲",
					"type":3,
					"lineId":54,
					"latitude":31.24253582,
					"longitude":121.4581584,
					"ctime":1.603760685e+12,
					"mtime":1.603760859e+12,
					"isDeleted":0,
					"sortIndex":16
				},
				{
					"id":1066,
					"name":"01061青年活动中心",
					"type":3,
					"lineId":54,
					"latitude":31.24228457,
					"longitude":121.4576806,
					"ctime":1.603760685e+12,
					"mtime":1.603760859e+12,
					"isDeleted":0,
					"sortIndex":17
				},
				{
					"id":1067,
					"name":"梅02007",
					"type":2,
					"lineId":54,
					"latitude":31.24218773,
					"longitude":121.4574856,
					"ctime":1.603760685e+12,
					"mtime":1.603760859e+12,
					"isDeleted":0,
					"sortIndex":18
				},
				{
					"id":1068,
					"name":"梅02011",
					"type":2,
					"lineId":54,
					"latitude":31.24141525,
					"longitude":121.45626,
					"ctime":1.603760685e+12,
					"mtime":1.603760859e+12,
					"isDeleted":0,
					"sortIndex":19
				},
				{
					"id":1069,
					"name":"梅02209",
					"type":0,
					"lineId":54,
					"latitude":31.24045577,
					"longitude":121.4547996,
					"ctime":1.603760685e+12,
					"mtime":1.603760859e+12,
					"isDeleted":0,
					"sortIndex":20
				},
				{
					"id":1070,
					"name":"梅02210",
					"type":2,
					"lineId":54,
					"latitude":31.24048767,
					"longitude":121.4545552,
					"ctime":1.603760685e+12,
					"mtime":1.603760859e+12,
					"isDeleted":0,
					"sortIndex":21
				},
				{
					"id":1071,
					"name":"梅02204",
					"type":2,
					"lineId":54,
					"latitude":31.2390433,
					"longitude":121.4559491,
					"ctime":1.603760685e+12,
					"mtime":1.603760859e+12,
					"isDeleted":0,
					"sortIndex":22
				},
				{
					"id":1072,
					"name":"09749昌平恒通施工",
					"type":3,
					"lineId":54,
					"latitude":31.2390212,
					"longitude":121.4559797,
					"ctime":1.603760685e+12,
					"mtime":1.603760859e+12,
					"isDeleted":0,
					"sortIndex":23
				},
				{
					"id":1073,
					"name":"A0979长安550弄甲",
					"type":3,
					"lineId":54,
					"latitude":31.23899301,
					"longitude":121.4560153,
					"ctime":1.603760685e+12,
					"mtime":1.603760859e+12,
					"isDeleted":0,
					"sortIndex":24
				},
				{
					"id":1074,
					"name":"A0961光复877甲",
					"type":3,
					"lineId":54,
					"latitude":31.23898865,
					"longitude":121.4560408,
					"ctime":1.603760685e+12,
					"mtime":1.603760859e+12,
					"isDeleted":0,
					"sortIndex":25
				},
				{
					"id":1075,
					"name":"7505光复汉中南（柱上断路器）",
					"type":1,
					"lineId":54,
					"latitude":31.23896609,
					"longitude":121.4560748,
					"ctime":1.603760685e+12,
					"mtime":1.603760859e+12,
					"isDeleted":0,
					"sortIndex":26
				},
				{
					"id":1076,
					"name":"24201",
					"type":0,
					"lineId":54,
					"latitude":31.24628619,
					"longitude":121.4603429,
					"ctime":1.603760685e+12,
					"mtime":1.603760859e+12,
					"isDeleted":0,
					"sortIndex":27
				},
				{
					"id":1077,
					"name":"00988恒通华盛",
					"type":3,
					"lineId":54,
					"latitude":31.24372192,
					"longitude":121.4608789,
					"ctime":1.603760685e+12,
					"mtime":1.603760859e+12,
					"isDeleted":0,
					"sortIndex":28
				},
				{
					"id":1078,
					"name":"24101",
					"type":2,
					"lineId":54,
					"latitude":31.24435523,
					"longitude":121.4627808,
					"ctime":1.603760685e+12,
					"mtime":1.603760859e+12,
					"isDeleted":0,
					"sortIndex":29
				},
				{
					"id":1079,
					"name":"8573大统天目",
					"type":1,
					"lineId":54,
					"latitude":31.24420161,
					"longitude":121.4630495,
					"ctime":1.603760685e+12,
					"mtime":1.603760859e+12,
					"isDeleted":0,
					"sortIndex":30
				},
				{
					"id":1080,
					"name":"梅02008",
					"type":0,
					"lineId":54,
					"latitude":31.24183371,
					"longitude":121.4567323,
					"ctime":1.603760685e+12,
					"mtime":1.603760859e+12,
					"isDeleted":0,
					"sortIndex":31
				},
				{
					"id":1081,
					"name":"梅02101",
					"type":0,
					"lineId":54,
					"latitude":31.24303398,
					"longitude":121.4585382,
					"ctime":1.603760685e+12,
					"mtime":1.603760859e+12,
					"isDeleted":0,
					"sortIndex":32
				},
				{
					"id":1082,
					"name":"梅02103",
					"type":0,
					"lineId":54,
					"latitude":31.24269075,
					"longitude":121.4588937,
					"ctime":1.603760685e+12,
					"mtime":1.603760859e+12,
					"isDeleted":0,
					"sortIndex":33
				},
				{
					"id":1083,
					"name":"B0966汉中28西乙",
					"type":3,
					"lineId":54,
					"latitude":31.24262917,
					"longitude":121.4592553,
					"ctime":1.603760685e+12,
					"mtime":1.603760859e+12,
					"isDeleted":0,
					"sortIndex":34
				},
				{
					"id":1084,
					"name":"梅02105",
					"type":2,
					"lineId":54,
					"latitude":31.24251843,
					"longitude":121.4593917,
					"ctime":1.603760685e+12,
					"mtime":1.603760859e+12,
					"isDeleted":0,
					"sortIndex":35
				},
				{
					"id":1085,
					"name":"梅02105-1",
					"type":2,
					"lineId":54,
					"latitude":31.24214085,
					"longitude":121.4596972,
					"ctime":1.603760685e+12,
					"mtime":1.603760859e+12,
					"isDeleted":0,
					"sortIndex":36
				},
				{
					"id":1086,
					"name":"7339梅园恒通（柱上断路器）",
					"type":1,
					"lineId":54,
					"latitude":31.24207437,
					"longitude":121.4597543,
					"ctime":1.603760685e+12,
					"mtime":1.603760859e+12,
					"isDeleted":0,
					"sortIndex":37
				}
			],
			"stationPos":[
				{
					"id":9,
					"name":"kkk",
					"address":"",
					"latitude":31.26627,
					"longitude":121.46776,
					"ctime":1.590735332e+12,
					"mtime":1.590735332e+12,
					"isDeleted":0,
					"stationType":0
				}
			],
			"bindList":[
				[
					{
						"latitude":31.24741005,
						"longitude":121.4602289,
						"strokeStyle":"solid"
					},
					{
						"latitude":31.24713742,
						"longitude":121.4602683,
						"strokeStyle":"solid"
					}
				],
				[
					{
						"latitude":31.24713742,
						"longitude":121.4602683,
						"strokeStyle":"solid"
					},
					{
						"latitude":31.24703407,
						"longitude":121.4602713,
						"strokeStyle":"solid"
					}
				],
				[
					{
						"latitude":31.24703407,
						"longitude":121.4602713,
						"strokeStyle":"solid"
					},
					{
						"latitude":31.24694489,
						"longitude":121.4602814,
						"strokeStyle":"solid"
					}
				],
				[
					{
						"latitude":31.24694489,
						"longitude":121.4602814,
						"strokeStyle":"solid"
					},
					{
						"latitude":31.24680605,
						"longitude":121.4602965,
						"strokeStyle":"solid"
					}
				],
				[
					{
						"latitude":31.24680605,
						"longitude":121.4602965,
						"strokeStyle":"solid"
					},
					{
						"latitude":31.24667428,
						"longitude":121.4603218,
						"strokeStyle":"solid"
					}
				],
				[
					{
						"latitude":31.24667428,
						"longitude":121.4603218,
						"strokeStyle":"dashed"
					},
					{
						"latitude":31.24381232,
						"longitude":121.4607815,
						"strokeStyle":"dashed"
					}
				],
				[
					{
						"latitude":31.24381232,
						"longitude":121.4607815,
						"strokeStyle":"solid"
					},
					{
						"latitude":31.24408811,
						"longitude":121.4604613,
						"strokeStyle":"solid"
					}
				],
				[
					{
						"latitude":31.24408811,
						"longitude":121.4604613,
						"strokeStyle":"solid"
					},
					{
						"latitude":31.24391258,
						"longitude":121.4601768,
						"strokeStyle":"solid"
					}
				],
				[
					{
						"latitude":31.24391258,
						"longitude":121.4601768,
						"strokeStyle":"solid"
					},
					{
						"latitude":31.24385888,
						"longitude":121.460063,
						"strokeStyle":"solid"
					}
				],
				[
					{
						"latitude":31.24385888,
						"longitude":121.460063,
						"strokeStyle":"solid"
					},
					{
						"latitude":31.243812,
						"longitude":121.4599584,
						"strokeStyle":"solid"
					}
				],
				[
					{
						"latitude":31.243812,
						"longitude":121.4599584,
						"strokeStyle":"solid"
					},
					{
						"latitude":31.24377419,
						"longitude":121.4598786,
						"strokeStyle":"solid"
					}
				],
				[
					{
						"latitude":31.24377419,
						"longitude":121.4598786,
						"strokeStyle":"solid"
					},
					{
						"latitude":31.2432548,
						"longitude":121.459021,
						"strokeStyle":"solid"
					}
				],
				[
					{
						"latitude":31.2432548,
						"longitude":121.459021,
						"strokeStyle":"solid"
					},
					{
						"latitude":31.2431639,
						"longitude":121.4588958,
						"strokeStyle":"solid"
					}
				],
				[
					{
						"latitude":31.2431639,
						"longitude":121.4588958,
						"strokeStyle":"solid"
					},
					{
						"latitude":31.24294945,
						"longitude":121.4585059,
						"strokeStyle":"solid"
					}
				],
				[
					{
						"latitude":31.24294945,
						"longitude":121.4585059,
						"strokeStyle":"solid"
					},
					{
						"latitude":31.24262063,
						"longitude":121.4582907,
						"strokeStyle":"solid"
					}
				],
				[
					{
						"latitude":31.24262063,
						"longitude":121.4582907,
						"strokeStyle":"solid"
					},
					{
						"latitude":31.24253582,
						"longitude":121.4581584,
						"strokeStyle":"solid"
					}
				],
				[
					{
						"latitude":31.24253582,
						"longitude":121.4581584,
						"strokeStyle":"solid"
					},
					{
						"latitude":31.24228457,
						"longitude":121.4576806,
						"strokeStyle":"solid"
					}
				],
				[
					{
						"latitude":31.24228457,
						"longitude":121.4576806,
						"strokeStyle":"solid"
					},
					{
						"latitude":31.24218773,
						"longitude":121.4574856,
						"strokeStyle":"solid"
					}
				],
				[
					{
						"latitude":31.24218773,
						"longitude":121.4574856,
						"strokeStyle":"dashed"
					},
					{
						"latitude":31.24141525,
						"longitude":121.45626,
						"strokeStyle":"dashed"
					}
				],
				[
					{
						"latitude":31.24141525,
						"longitude":121.45626,
						"strokeStyle":"solid"
					},
					{
						"latitude":31.24045577,
						"longitude":121.4547996,
						"strokeStyle":"solid"
					}
				],
				[
					{
						"latitude":31.24045577,
						"longitude":121.4547996,
						"strokeStyle":"solid"
					},
					{
						"latitude":31.24048767,
						"longitude":121.4545552,
						"strokeStyle":"solid"
					}
				],
				[
					{
						"latitude":31.24048767,
						"longitude":121.4545552,
						"strokeStyle":"dashed"
					},
					{
						"latitude":31.2390433,
						"longitude":121.4559491,
						"strokeStyle":"dashed"
					}
				],
				[
					{
						"latitude":31.2390433,
						"longitude":121.4559491,
						"strokeStyle":"solid"
					},
					{
						"latitude":31.2390212,
						"longitude":121.4559797,
						"strokeStyle":"solid"
					}
				],
				[
					{
						"latitude":31.2390212,
						"longitude":121.4559797,
						"strokeStyle":"solid"
					},
					{
						"latitude":31.23899301,
						"longitude":121.4560153,
						"strokeStyle":"solid"
					}
				],
				[
					{
						"latitude":31.23899301,
						"longitude":121.4560153,
						"strokeStyle":"solid"
					},
					{
						"latitude":31.23898865,
						"longitude":121.4560408,
						"strokeStyle":"solid"
					}
				],
				[
					{
						"latitude":31.23898865,
						"longitude":121.4560408,
						"strokeStyle":"solid"
					},
					{
						"latitude":31.23896609,
						"longitude":121.4560748,
						"strokeStyle":"solid"
					}
				],
				[
					{
						"latitude":31.24667428,
						"longitude":121.4603218,
						"strokeStyle":"solid"
					},
					{
						"latitude":31.24628619,
						"longitude":121.4603429,
						"strokeStyle":"solid"
					}
				],
				[
					{
						"latitude":31.24381232,
						"longitude":121.4607815,
						"strokeStyle":"solid"
					},
					{
						"latitude":31.24372192,
						"longitude":121.4608789,
						"strokeStyle":"solid"
					}
				],
				[
					{
						"latitude":31.243812,
						"longitude":121.4599584,
						"strokeStyle":"dashed"
					},
					{
						"latitude":31.24435523,
						"longitude":121.4627808,
						"strokeStyle":"dashed"
					}
				],
				[
					{
						"latitude":31.24435523,
						"longitude":121.4627808,
						"strokeStyle":"solid"
					},
					{
						"latitude":31.24420161,
						"longitude":121.4630495,
						"strokeStyle":"solid"
					}
				],
				[
					{
						"latitude":31.24141525,
						"longitude":121.45626,
						"strokeStyle":"solid"
					},
					{
						"latitude":31.24183371,
						"longitude":121.4567323,
						"strokeStyle":"solid"
					}
				],
				[
					{
						"latitude":31.24303398,
						"longitude":121.4585382,
						"strokeStyle":"solid"
					},
					{
						"latitude":31.24269075,
						"longitude":121.4588937,
						"strokeStyle":"solid"
					}
				],
				[
					{
						"latitude":31.24269075,
						"longitude":121.4588937,
						"strokeStyle":"solid"
					},
					{
						"latitude":31.24262917,
						"longitude":121.4592553,
						"strokeStyle":"solid"
					}
				],
				[
					{
						"latitude":31.24262917,
						"longitude":121.4592553,
						"strokeStyle":"solid"
					},
					{
						"latitude":31.24251843,
						"longitude":121.4593917,
						"strokeStyle":"solid"
					}
				],
				[
					{
						"latitude":31.24251843,
						"longitude":121.4593917,
						"strokeStyle":"solid"
					},
					{
						"latitude":31.24214085,
						"longitude":121.4596972,
						"strokeStyle":"solid"
					}
				],
				[
					{
						"latitude":31.24214085,
						"longitude":121.4596972,
						"strokeStyle":"solid"
					},
					{
						"latitude":31.24207437,
						"longitude":121.4597543,
						"strokeStyle":"solid"
					}
				]
			]
		},
		"55":{
			"pointPos":[
				{
					"id":1087,
					"name":"8159中山金沙江北",
					"type":1,
					"lineId":55,
					"latitude":31.23231842,
					"longitude":121.4106349,
					"ctime":1.603760685e+12,
					"mtime":1.603760859e+12,
					"isDeleted":0,
					"sortIndex":0
				},
				{
					"id":1088,
					"name":"01246杏山8弄7号",
					"type":3,
					"lineId":55,
					"latitude":31.23221048,
					"longitude":121.4105986,
					"ctime":1.603760685e+12,
					"mtime":1.603760859e+12,
					"isDeleted":0,
					"sortIndex":1
				},
				{
					"id":1089,
					"name":"A0882杏山28甲",
					"type":3,
					"lineId":55,
					"latitude":31.23210827,
					"longitude":121.4105288,
					"ctime":1.603760685e+12,
					"mtime":1.603760859e+12,
					"isDeleted":0,
					"sortIndex":2
				},
				{
					"id":1090,
					"name":"B4555崇明石化乙",
					"type":3,
					"lineId":55,
					"latitude":31.23183773,
					"longitude":121.4104528,
					"ctime":1.603760685e+12,
					"mtime":1.603760859e+12,
					"isDeleted":0,
					"sortIndex":3
				},
				{
					"id":1091,
					"name":"顺07303",
					"type":2,
					"lineId":55,
					"latitude":31.23152855,
					"longitude":121.4103606,
					"ctime":1.603760685e+12,
					"mtime":1.603760859e+12,
					"isDeleted":0,
					"sortIndex":4
				},
				{
					"id":1092,
					"name":"顺07304",
					"type":2,
					"lineId":55,
					"latitude":31.2306278,
					"longitude":121.4101493,
					"ctime":1.603760685e+12,
					"mtime":1.603760859e+12,
					"isDeleted":0,
					"sortIndex":5
				},
				{
					"id":1093,
					"name":"风28001（湾13师大出线）",
					"type":2,
					"lineId":55,
					"latitude":31.23057606,
					"longitude":121.4101362,
					"ctime":1.603760685e+12,
					"mtime":1.603760859e+12,
					"isDeleted":0,
					"sortIndex":6
				},
				{
					"id":1094,
					"name":"B0859内环金沙江乙",
					"type":3,
					"lineId":55,
					"latitude":31.23049191,
					"longitude":121.4101138,
					"ctime":1.603760685e+12,
					"mtime":1.603760859e+12,
					"isDeleted":0,
					"sortIndex":7
				},
				{
					"id":1095,
					"name":"A0860金沙江65甲",
					"type":3,
					"lineId":55,
					"latitude":31.23041835,
					"longitude":121.4100858,
					"ctime":1.603760685e+12,
					"mtime":1.603760859e+12,
					"isDeleted":0,
					"sortIndex":8
				},
				{
					"id":1096,
					"name":"B0846金沙江65东乙",
					"type":3,
					"lineId":55,
					"latitude":31.23033296,
					"longitude":121.4100758,
					"ctime":1.603760685e+12,
					"mtime":1.603760859e+12,
					"isDeleted":0,
					"sortIndex":9
				},
				{
					"id":1097,
					"name":"00856银成大厦",
					"type":3,
					"lineId":55,
					"latitude":31.23029493,
					"longitude":121.4100664,
					"ctime":1.603760685e+12,
					"mtime":1.603760859e+12,
					"isDeleted":0,
					"sortIndex":10
				},
				{
					"id":1098,
					"name":"08382安装工程集团",
					"type":3,
					"lineId":55,
					"latitude":31.23025098,
					"longitude":121.410059,
					"ctime":1.603760685e+12,
					"mtime":1.603760859e+12,
					"isDeleted":0,
					"sortIndex":11
				},
				{
					"id":1099,
					"name":"风28006",
					"type":2,
					"lineId":55,
					"latitude":31.23020672,
					"longitude":121.4100521,
					"ctime":1.603760685e+12,
					"mtime":1.603760859e+12,
					"isDeleted":0,
					"sortIndex":12
				},
				{
					"id":1100,
					"name":"风28008",
					"type":2,
					"lineId":55,
					"latitude":31.22968879,
					"longitude":121.4099341,
					"ctime":1.603760685e+12,
					"mtime":1.603760859e+12,
					"isDeleted":0,
					"sortIndex":13
				},
				{
					"id":1101,
					"name":"00847中山3489",
					"type":3,
					"lineId":55,
					"latitude":31.22978642,
					"longitude":121.409891,
					"ctime":1.603760685e+12,
					"mtime":1.603760859e+12,
					"isDeleted":0,
					"sortIndex":14
				},
				{
					"id":1102,
					"name":"B0840师大电话站乙",
					"type":3,
					"lineId":55,
					"latitude":31.2297669,
					"longitude":121.4097666,
					"ctime":1.603760685e+12,
					"mtime":1.603760859e+12,
					"isDeleted":0,
					"sortIndex":15
				},
				{
					"id":1103,
					"name":"风28102-1",
					"type":2,
					"lineId":55,
					"latitude":31.2297173,
					"longitude":121.4096447,
					"ctime":1.603760685e+12,
					"mtime":1.603760859e+12,
					"isDeleted":0,
					"sortIndex":16
				},
				{
					"id":1104,
					"name":"B0842金沙江65西乙",
					"type":3,
					"lineId":55,
					"latitude":31.22971812,
					"longitude":121.4095683,
					"ctime":1.603760685e+12,
					"mtime":1.603760859e+12,
					"isDeleted":0,
					"sortIndex":17
				},
				{
					"id":1105,
					"name":"芝23212",
					"type":2,
					"lineId":55,
					"latitude":31.22957416,
					"longitude":121.4092675,
					"ctime":1.603760685e+12,
					"mtime":1.603760859e+12,
					"isDeleted":0,
					"sortIndex":18
				},
				{
					"id":1106,
					"name":"1258中山北金沙江南（柱上断路器）",
					"type":1,
					"lineId":55,
					"latitude":31.22965064,
					"longitude":121.4092203,
					"ctime":1.603760685e+12,
					"mtime":1.603760859e+12,
					"isDeleted":0,
					"sortIndex":19
				},
				{
					"id":1107,
					"name":"6352中山3617",
					"type":1,
					"lineId":55,
					"latitude":31.22902744,
					"longitude":121.4099097,
					"ctime":1.603760685e+12,
					"mtime":1.603760859e+12,
					"isDeleted":0,
					"sortIndex":20
				},
				{
					"id":1108,
					"name":"风28014",
					"type":0,
					"lineId":55,
					"latitude":31.22822126,
					"longitude":121.4100088,
					"ctime":1.603760685e+12,
					"mtime":1.603760859e+12,
					"isDeleted":0,
					"sortIndex":21
				},
				{
					"id":1109,
					"name":"B0770师大东乙",
					"type":3,
					"lineId":55,
					"latitude":31.22691637,
					"longitude":121.410446,
					"ctime":1.603760685e+12,
					"mtime":1.603760859e+12,
					"isDeleted":0,
					"sortIndex":22
				},
				{
					"id":1110,
					"name":"B0762师大南乙",
					"type":3,
					"lineId":55,
					"latitude":31.28667158,
					"longitude":121.4105382,
					"ctime":1.603760685e+12,
					"mtime":1.603760859e+12,
					"isDeleted":0,
					"sortIndex":23
				},
				{
					"id":1111,
					"name":"A0850师大北甲",
					"type":3,
					"lineId":55,
					"latitude":31.22636398,
					"longitude":121.4106232,
					"ctime":1.603760685e+12,
					"mtime":1.603760859e+12,
					"isDeleted":0,
					"sortIndex":24
				},
				{
					"id":1112,
					"name":"风28021",
					"type":2,
					"lineId":55,
					"latitude":31.22607844,
					"longitude":121.410702,
					"ctime":1.603760685e+12,
					"mtime":1.603760859e+12,
					"isDeleted":0,
					"sortIndex":25
				},
				{
					"id":1113,
					"name":"A0854师大西甲",
					"type":3,
					"lineId":55,
					"latitude":31.22604102,
					"longitude":121.410715,
					"ctime":1.603760685e+12,
					"mtime":1.603760859e+12,
					"isDeleted":0,
					"sortIndex":26
				},
				{
					"id":1114,
					"name":"风28023",
					"type":2,
					"lineId":55,
					"latitude":31.22496884,
					"longitude":121.41078,
					"ctime":1.603760685e+12,
					"mtime":1.603760859e+12,
					"isDeleted":0,
					"sortIndex":27
				},
				{
					"id":1115,
					"name":"B0764海鑫北乙",
					"type":3,
					"lineId":55,
					"latitude":31.2244238,
					"longitude":121.4107474,
					"ctime":1.603760685e+12,
					"mtime":1.603760859e+12,
					"isDeleted":0,
					"sortIndex":28
				},
				{
					"id":1116,
					"name":"风28027",
					"type":2,
					"lineId":55,
					"latitude":31.22386983,
					"longitude":121.4107027,
					"ctime":1.603760685e+12,
					"mtime":1.603760859e+12,
					"isDeleted":0,
					"sortIndex":29
				},
				{
					"id":1117,
					"name":"风28028",
					"type":2,
					"lineId":55,
					"latitude":31.22359488,
					"longitude":121.4106782,
					"ctime":1.603760685e+12,
					"mtime":1.603760859e+12,
					"isDeleted":0,
					"sortIndex":30
				},
				{
					"id":1118,
					"name":"B0761海鑫南乙",
					"type":3,
					"lineId":55,
					"latitude":31.2233191,
					"longitude":121.4106595,
					"ctime":1.603760685e+12,
					"mtime":1.603760859e+12,
					"isDeleted":0,
					"sortIndex":31
				},
				{
					"id":1119,
					"name":"8166中山北光复西",
					"type":1,
					"lineId":55,
					"latitude":31.22311166,
					"longitude":121.4106473,
					"ctime":1.603760685e+12,
					"mtime":1.603760859e+12,
					"isDeleted":0,
					"sortIndex":32
				},
				{
					"id":1120,
					"name":"风28031",
					"type":2,
					"lineId":55,
					"latitude":31.22303113,
					"longitude":121.4106449,
					"ctime":1.603760685e+12,
					"mtime":1.603760859e+12,
					"isDeleted":0,
					"sortIndex":33
				},
				{
					"id":1121,
					"name":"风18102",
					"type":2,
					"lineId":55,
					"latitude":31.22336535,
					"longitude":121.4113635,
					"ctime":1.603760685e+12,
					"mtime":1.603760859e+12,
					"isDeleted":0,
					"sortIndex":34
				},
				{
					"id":1122,
					"name":"09898光复西中山北",
					"type":3,
					"lineId":55,
					"latitude":31.22365251,
					"longitude":121.4113879,
					"ctime":1.603760685e+12,
					"mtime":1.603760859e+12,
					"isDeleted":0,
					"sortIndex":35
				},
				{
					"id":1123,
					"name":"00767中山支光复西",
					"type":3,
					"lineId":55,
					"latitude":31.22431141,
					"longitude":121.411436,
					"ctime":1.603760685e+12,
					"mtime":1.603760859e+12,
					"isDeleted":0,
					"sortIndex":36
				},
				{
					"id":1124,
					"name":"00768中盘",
					"type":3,
					"lineId":55,
					"latitude":31.22556744,
					"longitude":121.4114052,
					"ctime":1.603760685e+12,
					"mtime":1.603760859e+12,
					"isDeleted":0,
					"sortIndex":37
				},
				{
					"id":1125,
					"name":"00769中山盘湾里",
					"type":3,
					"lineId":55,
					"latitude":31.22573341,
					"longitude":121.411371,
					"ctime":1.603760685e+12,
					"mtime":1.603760859e+12,
					"isDeleted":0,
					"sortIndex":38
				},
				{
					"id":1126,
					"name":"风18111",
					"type":0,
					"lineId":55,
					"latitude":31.22631265,
					"longitude":121.4111467,
					"ctime":1.603760685e+12,
					"mtime":1.603760859e+12,
					"isDeleted":0,
					"sortIndex":39
				},
				{
					"id":1127,
					"name":"00772盘湾里中山",
					"type":3,
					"lineId":55,
					"latitude":31.22635249,
					"longitude":121.411267,
					"ctime":1.603760685e+12,
					"mtime":1.603760859e+12,
					"isDeleted":0,
					"sortIndex":40
				},
				{
					"id":1128,
					"name":"风18703",
					"type":0,
					"lineId":55,
					"latitude":31.22646794,
					"longitude":121.4115638,
					"ctime":1.603760685e+12,
					"mtime":1.603760859e+12,
					"isDeleted":0,
					"sortIndex":41
				},
				{
					"id":1129,
					"name":"B0773中山北3620乙",
					"type":3,
					"lineId":55,
					"latitude":31.22649488,
					"longitude":121.411072,
					"ctime":1.603760685e+12,
					"mtime":1.603760859e+12,
					"isDeleted":0,
					"sortIndex":42
				},
				{
					"id":1130,
					"name":"B0771曹家港乙",
					"type":3,
					"lineId":55,
					"latitude":31.22658518,
					"longitude":121.4110435,
					"ctime":1.603760685e+12,
					"mtime":1.603760859e+12,
					"isDeleted":0,
					"sortIndex":43
				},
				{
					"id":1131,
					"name":"8710中山盘湾里",
					"type":1,
					"lineId":55,
					"latitude":31.22666628,
					"longitude":121.4110158,
					"ctime":1.603760685e+12,
					"mtime":1.603760859e+12,
					"isDeleted":0,
					"sortIndex":44
				}
			],
			"stationPos":[
				{
					"id":9,
					"name":"kkk",
					"address":"",
					"latitude":31.26627,
					"longitude":121.46776,
					"ctime":1.590735332e+12,
					"mtime":1.590735332e+12,
					"isDeleted":0,
					"stationType":0
				}
			],
			"bindList":[
				[
					{
						"latitude":31.23231842,
						"longitude":121.4106349,
						"strokeStyle":"solid"
					},
					{
						"latitude":31.23221048,
						"longitude":121.4105986,
						"strokeStyle":"solid"
					}
				],
				[
					{
						"latitude":31.23221048,
						"longitude":121.4105986,
						"strokeStyle":"solid"
					},
					{
						"latitude":31.23210827,
						"longitude":121.4105288,
						"strokeStyle":"solid"
					}
				],
				[
					{
						"latitude":31.23210827,
						"longitude":121.4105288,
						"strokeStyle":"solid"
					},
					{
						"latitude":31.23183773,
						"longitude":121.4104528,
						"strokeStyle":"solid"
					}
				],
				[
					{
						"latitude":31.23183773,
						"longitude":121.4104528,
						"strokeStyle":"solid"
					},
					{
						"latitude":31.23152855,
						"longitude":121.4103606,
						"strokeStyle":"solid"
					}
				],
				[
					{
						"latitude":31.23152855,
						"longitude":121.4103606,
						"strokeStyle":"dashed"
					},
					{
						"latitude":31.2306278,
						"longitude":121.4101493,
						"strokeStyle":"dashed"
					}
				],
				[
					{
						"latitude":31.2306278,
						"longitude":121.4101493,
						"strokeStyle":"solid"
					},
					{
						"latitude":31.23057606,
						"longitude":121.4101362,
						"strokeStyle":"solid"
					}
				],
				[
					{
						"latitude":31.23057606,
						"longitude":121.4101362,
						"strokeStyle":"solid"
					},
					{
						"latitude":31.23049191,
						"longitude":121.4101138,
						"strokeStyle":"solid"
					}
				],
				[
					{
						"latitude":31.23049191,
						"longitude":121.4101138,
						"strokeStyle":"solid"
					},
					{
						"latitude":31.23041835,
						"longitude":121.4100858,
						"strokeStyle":"solid"
					}
				],
				[
					{
						"latitude":31.23041835,
						"longitude":121.4100858,
						"strokeStyle":"solid"
					},
					{
						"latitude":31.23033296,
						"longitude":121.4100758,
						"strokeStyle":"solid"
					}
				],
				[
					{
						"latitude":31.23033296,
						"longitude":121.4100758,
						"strokeStyle":"solid"
					},
					{
						"latitude":31.23029493,
						"longitude":121.4100664,
						"strokeStyle":"solid"
					}
				],
				[
					{
						"latitude":31.23029493,
						"longitude":121.4100664,
						"strokeStyle":"solid"
					},
					{
						"latitude":31.23025098,
						"longitude":121.410059,
						"strokeStyle":"solid"
					}
				],
				[
					{
						"latitude":31.23025098,
						"longitude":121.410059,
						"strokeStyle":"solid"
					},
					{
						"latitude":31.23020672,
						"longitude":121.4100521,
						"strokeStyle":"solid"
					}
				],
				[
					{
						"latitude":31.23020672,
						"longitude":121.4100521,
						"strokeStyle":"dashed"
					},
					{
						"latitude":31.22968879,
						"longitude":121.4099341,
						"strokeStyle":"dashed"
					}
				],
				[
					{
						"latitude":31.22968879,
						"longitude":121.4099341,
						"strokeStyle":"solid"
					},
					{
						"latitude":31.22978642,
						"longitude":121.409891,
						"strokeStyle":"solid"
					}
				],
				[
					{
						"latitude":31.22978642,
						"longitude":121.409891,
						"strokeStyle":"solid"
					},
					{
						"latitude":31.2297669,
						"longitude":121.4097666,
						"strokeStyle":"solid"
					}
				],
				[
					{
						"latitude":31.2297669,
						"longitude":121.4097666,
						"strokeStyle":"solid"
					},
					{
						"latitude":31.2297173,
						"longitude":121.4096447,
						"strokeStyle":"solid"
					}
				],
				[
					{
						"latitude":31.2297173,
						"longitude":121.4096447,
						"strokeStyle":"solid"
					},
					{
						"latitude":31.22971812,
						"longitude":121.4095683,
						"strokeStyle":"solid"
					}
				],
				[
					{
						"latitude":31.2297173,
						"longitude":121.4096447,
						"strokeStyle":"dashed"
					},
					{
						"latitude":31.22957416,
						"longitude":121.4092675,
						"strokeStyle":"dashed"
					}
				],
				[
					{
						"latitude":31.22957416,
						"longitude":121.4092675,
						"strokeStyle":"solid"
					},
					{
						"latitude":31.22965064,
						"longitude":121.4092203,
						"strokeStyle":"solid"
					}
				],
				[
					{
						"latitude":31.22968879,
						"longitude":121.4099341,
						"strokeStyle":"solid"
					},
					{
						"latitude":31.22902744,
						"longitude":121.4099097,
						"strokeStyle":"solid"
					}
				],
				[
					{
						"latitude":31.22902744,
						"longitude":121.4099097,
						"strokeStyle":"solid"
					},
					{
						"latitude":31.22822126,
						"longitude":121.4100088,
						"strokeStyle":"solid"
					}
				],
				[
					{
						"latitude":31.22822126,
						"longitude":121.4100088,
						"strokeStyle":"solid"
					},
					{
						"latitude":31.22691637,
						"longitude":121.410446,
						"strokeStyle":"solid"
					}
				],
				[
					{
						"latitude":31.22691637,
						"longitude":121.410446,
						"strokeStyle":"solid"
					},
					{
						"latitude":31.28667158,
						"longitude":121.4105382,
						"strokeStyle":"solid"
					}
				],
				[
					{
						"latitude":31.28667158,
						"longitude":121.4105382,
						"strokeStyle":"solid"
					},
					{
						"latitude":31.22636398,
						"longitude":121.4106232,
						"strokeStyle":"solid"
					}
				],
				[
					{
						"latitude":31.22636398,
						"longitude":121.4106232,
						"strokeStyle":"solid"
					},
					{
						"latitude":31.22607844,
						"longitude":121.410702,
						"strokeStyle":"solid"
					}
				],
				[
					{
						"latitude":31.22607844,
						"longitude":121.410702,
						"strokeStyle":"solid"
					},
					{
						"latitude":31.22604102,
						"longitude":121.410715,
						"strokeStyle":"solid"
					}
				],
				[
					{
						"latitude":31.22607844,
						"longitude":121.410702,
						"strokeStyle":"dashed"
					},
					{
						"latitude":31.22496884,
						"longitude":121.41078,
						"strokeStyle":"dashed"
					}
				],
				[
					{
						"latitude":31.22496884,
						"longitude":121.41078,
						"strokeStyle":"solid"
					},
					{
						"latitude":31.2244238,
						"longitude":121.4107474,
						"strokeStyle":"solid"
					}
				],
				[
					{
						"latitude":31.2244238,
						"longitude":121.4107474,
						"strokeStyle":"solid"
					},
					{
						"latitude":31.22386983,
						"longitude":121.4107027,
						"strokeStyle":"solid"
					}
				],
				[
					{
						"latitude":31.22386983,
						"longitude":121.4107027,
						"strokeStyle":"dashed"
					},
					{
						"latitude":31.22359488,
						"longitude":121.4106782,
						"strokeStyle":"dashed"
					}
				],
				[
					{
						"latitude":31.22359488,
						"longitude":121.4106782,
						"strokeStyle":"solid"
					},
					{
						"latitude":31.2233191,
						"longitude":121.4106595,
						"strokeStyle":"solid"
					}
				],
				[
					{
						"latitude":31.2233191,
						"longitude":121.4106595,
						"strokeStyle":"solid"
					},
					{
						"latitude":31.22311166,
						"longitude":121.4106473,
						"strokeStyle":"solid"
					}
				],
				[
					{
						"latitude":31.22311166,
						"longitude":121.4106473,
						"strokeStyle":"solid"
					},
					{
						"latitude":31.22303113,
						"longitude":121.4106449,
						"strokeStyle":"solid"
					}
				],
				[
					{
						"latitude":31.22303113,
						"longitude":121.4106449,
						"strokeStyle":"dashed"
					},
					{
						"latitude":31.22336535,
						"longitude":121.4113635,
						"strokeStyle":"dashed"
					}
				],
				[
					{
						"latitude":31.22336535,
						"longitude":121.4113635,
						"strokeStyle":"solid"
					},
					{
						"latitude":31.22365251,
						"longitude":121.4113879,
						"strokeStyle":"solid"
					}
				],
				[
					{
						"latitude":31.22365251,
						"longitude":121.4113879,
						"strokeStyle":"solid"
					},
					{
						"latitude":31.22431141,
						"longitude":121.411436,
						"strokeStyle":"solid"
					}
				],
				[
					{
						"latitude":31.22431141,
						"longitude":121.411436,
						"strokeStyle":"solid"
					},
					{
						"latitude":31.22556744,
						"longitude":121.4114052,
						"strokeStyle":"solid"
					}
				],
				[
					{
						"latitude":31.22556744,
						"longitude":121.4114052,
						"strokeStyle":"solid"
					},
					{
						"latitude":31.22573341,
						"longitude":121.411371,
						"strokeStyle":"solid"
					}
				],
				[
					{
						"latitude":31.22573341,
						"longitude":121.411371,
						"strokeStyle":"solid"
					},
					{
						"latitude":31.22631265,
						"longitude":121.4111467,
						"strokeStyle":"solid"
					}
				],
				[
					{
						"latitude":31.22631265,
						"longitude":121.4111467,
						"strokeStyle":"solid"
					},
					{
						"latitude":31.22635249,
						"longitude":121.411267,
						"strokeStyle":"solid"
					}
				],
				[
					{
						"latitude":31.22635249,
						"longitude":121.411267,
						"strokeStyle":"solid"
					},
					{
						"latitude":31.22646794,
						"longitude":121.4115638,
						"strokeStyle":"solid"
					}
				],
				[
					{
						"latitude":31.22631265,
						"longitude":121.4111467,
						"strokeStyle":"solid"
					},
					{
						"latitude":31.22649488,
						"longitude":121.411072,
						"strokeStyle":"solid"
					}
				],
				[
					{
						"latitude":31.22649488,
						"longitude":121.411072,
						"strokeStyle":"solid"
					},
					{
						"latitude":31.22658518,
						"longitude":121.4110435,
						"strokeStyle":"solid"
					}
				]
			]
		},
		"56":{
			"pointPos":[
				{
					"id":1132,
					"name":"8193铜川子州",
					"type":1,
					"lineId":56,
					"latitude":31.25233283,
					"longitude":121.3880197,
					"ctime":1.603760685e+12,
					"mtime":1.603760859e+12,
					"isDeleted":0,
					"sortIndex":0
				},
				{
					"id":1133,
					"name":"光37001（光37铜川西出线）",
					"type":2,
					"lineId":56,
					"latitude":31.25243103,
					"longitude":121.3876549,
					"ctime":1.603760685e+12,
					"mtime":1.603760859e+12,
					"isDeleted":0,
					"sortIndex":1
				},
				{
					"id":1134,
					"name":"05376铜川子洲南",
					"type":3,
					"lineId":56,
					"latitude":31.25252207,
					"longitude":121.3873337,
					"ctime":1.603760685e+12,
					"mtime":1.603760859e+12,
					"isDeleted":0,
					"sortIndex":2
				},
				{
					"id":1135,
					"name":"B5377子洲南乙",
					"type":3,
					"lineId":56,
					"latitude":31.2526175,
					"longitude":121.3869756,
					"ctime":1.603760685e+12,
					"mtime":1.603760859e+12,
					"isDeleted":0,
					"sortIndex":3
				},
				{
					"id":1136,
					"name":"A5379真光南甲",
					"type":3,
					"lineId":56,
					"latitude":31.25280911,
					"longitude":121.3862861,
					"ctime":1.603760685e+12,
					"mtime":1.603760859e+12,
					"isDeleted":0,
					"sortIndex":4
				},
				{
					"id":1137,
					"name":"光37006",
					"type":0,
					"lineId":56,
					"latitude":31.25289946,
					"longitude":121.3859428,
					"ctime":1.603760685e+12,
					"mtime":1.603760859e+12,
					"isDeleted":0,
					"sortIndex":5
				},
				{
					"id":1138,
					"name":"光37112",
					"type":0,
					"lineId":56,
					"latitude":31.2528431,
					"longitude":121.3855663,
					"ctime":1.603760685e+12,
					"mtime":1.603760859e+12,
					"isDeleted":0,
					"sortIndex":6
				},
				{
					"id":1139,
					"name":"光37007",
					"type":0,
					"lineId":56,
					"latitude":31.25279945,
					"longitude":121.3853268,
					"ctime":1.603760685e+12,
					"mtime":1.603760859e+12,
					"isDeleted":0,
					"sortIndex":7
				},
				{
					"id":1140,
					"name":"8188铜川真光（柱上断路器）",
					"type":1,
					"lineId":56,
					"latitude":31.2526919,
					"longitude":121.385287,
					"ctime":1.603760685e+12,
					"mtime":1.603760859e+12,
					"isDeleted":0,
					"sortIndex":8
				},
				{
					"id":1141,
					"name":"B5379真光南乙",
					"type":3,
					"lineId":56,
					"latitude":31.25125503,
					"longitude":121.3849502,
					"ctime":1.603760685e+12,
					"mtime":1.603760859e+12,
					"isDeleted":0,
					"sortIndex":9
				},
				{
					"id":1142,
					"name":"光37117-1（安4出线）",
					"type":2,
					"lineId":56,
					"latitude":31.25107677,
					"longitude":121.3848839,
					"ctime":1.603760685e+12,
					"mtime":1.603760859e+12,
					"isDeleted":0,
					"sortIndex":10
				},
				{
					"id":1143,
					"name":"8189真光金汤",
					"type":1,
					"lineId":56,
					"latitude":31.2504168,
					"longitude":121.3846385,
					"ctime":1.603760685e+12,
					"mtime":1.603760859e+12,
					"isDeleted":0,
					"sortIndex":11
				},
				{
					"id":1144,
					"name":"8190金汤真光东",
					"type":1,
					"lineId":56,
					"latitude":31.25054074,
					"longitude":121.3849037,
					"ctime":1.603760685e+12,
					"mtime":1.603760859e+12,
					"isDeleted":0,
					"sortIndex":12
				},
				{
					"id":1145,
					"name":"光37302",
					"type":2,
					"lineId":56,
					"latitude":31.25065951,
					"longitude":121.3843327,
					"ctime":1.603760685e+12,
					"mtime":1.603760859e+12,
					"isDeleted":0,
					"sortIndex":13
				},
				{
					"id":1146,
					"name":"光37304",
					"type":2,
					"lineId":56,
					"latitude":31.25096823,
					"longitude":121.3829785,
					"ctime":1.603760685e+12,
					"mtime":1.603760859e+12,
					"isDeleted":0,
					"sortIndex":14
				},
				{
					"id":1147,
					"name":"8183金汤真光西",
					"type":1,
					"lineId":56,
					"latitude":31.25098383,
					"longitude":121.3828885,
					"ctime":1.603760685e+12,
					"mtime":1.603760859e+12,
					"isDeleted":0,
					"sortIndex":15
				},
				{
					"id":1148,
					"name":"光37111",
					"type":0,
					"lineId":56,
					"latitude":31.25332259,
					"longitude":121.3857343,
					"ctime":1.603760685e+12,
					"mtime":1.603760859e+12,
					"isDeleted":0,
					"sortIndex":16
				},
				{
					"id":1149,
					"name":"06175地铁真光施工",
					"type":3,
					"lineId":56,
					"latitude":31.25338278,
					"longitude":121.3855155,
					"ctime":1.603760685e+12,
					"mtime":1.603760859e+12,
					"isDeleted":0,
					"sortIndex":17
				},
				{
					"id":1150,
					"name":"A5382子洲中甲",
					"type":3,
					"lineId":56,
					"latitude":31.25367466,
					"longitude":121.3858537,
					"ctime":1.603760685e+12,
					"mtime":1.603760859e+12,
					"isDeleted":0,
					"sortIndex":18
				},
				{
					"id":1151,
					"name":"B5383真光电话乙",
					"type":3,
					"lineId":56,
					"latitude":31.25402527,
					"longitude":121.3859856,
					"ctime":1.603760685e+12,
					"mtime":1.603760859e+12,
					"isDeleted":0,
					"sortIndex":19
				},
				{
					"id":1152,
					"name":"A5384真光东甲",
					"type":3,
					"lineId":56,
					"latitude":31.25437734,
					"longitude":121.3861146,
					"ctime":1.603760685e+12,
					"mtime":1.603760859e+12,
					"isDeleted":0,
					"sortIndex":20
				},
				{
					"id":1153,
					"name":"05387老姚家角真北",
					"type":3,
					"lineId":56,
					"latitude":31.25536285,
					"longitude":121.3864793,
					"ctime":1.603760685e+12,
					"mtime":1.603760859e+12,
					"isDeleted":0,
					"sortIndex":21
				},
				{
					"id":1154,
					"name":"01363瀚立商业",
					"type":3,
					"lineId":56,
					"latitude":31.25558234,
					"longitude":121.3865582,
					"ctime":1.603760685e+12,
					"mtime":1.603760859e+12,
					"isDeleted":0,
					"sortIndex":22
				},
				{
					"id":1155,
					"name":"光37103",
					"type":2,
					"lineId":56,
					"latitude":31.25575765,
					"longitude":121.3866252,
					"ctime":1.603760685e+12,
					"mtime":1.603760859e+12,
					"isDeleted":0,
					"sortIndex":23
				},
				{
					"id":1156,
					"name":"B5388真光1915乙",
					"type":3,
					"lineId":56,
					"latitude":31.25575765,
					"longitude":121.3866252,
					"ctime":1.603760685e+12,
					"mtime":1.603760859e+12,
					"isDeleted":0,
					"sortIndex":24
				},
				{
					"id":1157,
					"name":"光37101",
					"type":2,
					"lineId":56,
					"latitude":31.25758279,
					"longitude":121.3872722,
					"ctime":1.603760685e+12,
					"mtime":1.603760859e+12,
					"isDeleted":0,
					"sortIndex":25
				},
				{
					"id":1158,
					"name":"05391五月天实业",
					"type":3,
					"lineId":56,
					"latitude":31.25772127,
					"longitude":121.3873268,
					"ctime":1.603760685e+12,
					"mtime":1.603760859e+12,
					"isDeleted":0,
					"sortIndex":26
				},
				{
					"id":1159,
					"name":"8839真光金鼎",
					"type":1,
					"lineId":56,
					"latitude":31.25803429,
					"longitude":121.387366,
					"ctime":1.603760685e+12,
					"mtime":1.603760859e+12,
					"isDeleted":0,
					"sortIndex":27
				}
			],
			"stationPos":[
				{
					"id":9,
					"name":"kkk",
					"address":"",
					"latitude":31.26627,
					"longitude":121.46776,
					"ctime":1.590735332e+12,
					"mtime":1.590735332e+12,
					"isDeleted":0,
					"stationType":0
				}
			],
			"bindList":[
				[
					{
						"latitude":31.25233283,
						"longitude":121.3880197,
						"strokeStyle":"solid"
					},
					{
						"latitude":31.25243103,
						"longitude":121.3876549,
						"strokeStyle":"solid"
					}
				],
				[
					{
						"latitude":31.25243103,
						"longitude":121.3876549,
						"strokeStyle":"solid"
					},
					{
						"latitude":31.25252207,
						"longitude":121.3873337,
						"strokeStyle":"solid"
					}
				],
				[
					{
						"latitude":31.25252207,
						"longitude":121.3873337,
						"strokeStyle":"solid"
					},
					{
						"latitude":31.2526175,
						"longitude":121.3869756,
						"strokeStyle":"solid"
					}
				],
				[
					{
						"latitude":31.2526175,
						"longitude":121.3869756,
						"strokeStyle":"solid"
					},
					{
						"latitude":31.25280911,
						"longitude":121.3862861,
						"strokeStyle":"solid"
					}
				],
				[
					{
						"latitude":31.25280911,
						"longitude":121.3862861,
						"strokeStyle":"solid"
					},
					{
						"latitude":31.25289946,
						"longitude":121.3859428,
						"strokeStyle":"solid"
					}
				],
				[
					{
						"latitude":31.25289946,
						"longitude":121.3859428,
						"strokeStyle":"solid"
					},
					{
						"latitude":31.2528431,
						"longitude":121.3855663,
						"strokeStyle":"solid"
					}
				],
				[
					{
						"latitude":31.2528431,
						"longitude":121.3855663,
						"strokeStyle":"solid"
					},
					{
						"latitude":31.25279945,
						"longitude":121.3853268,
						"strokeStyle":"solid"
					}
				],
				[
					{
						"latitude":31.25279945,
						"longitude":121.3853268,
						"strokeStyle":"solid"
					},
					{
						"latitude":31.2526919,
						"longitude":121.385287,
						"strokeStyle":"solid"
					}
				],
				[
					{
						"latitude":31.2528431,
						"longitude":121.3855663,
						"strokeStyle":"solid"
					},
					{
						"latitude":31.25125503,
						"longitude":121.3849502,
						"strokeStyle":"solid"
					}
				],
				[
					{
						"latitude":31.25125503,
						"longitude":121.3849502,
						"strokeStyle":"solid"
					},
					{
						"latitude":31.25107677,
						"longitude":121.3848839,
						"strokeStyle":"solid"
					}
				],
				[
					{
						"latitude":31.25107677,
						"longitude":121.3848839,
						"strokeStyle":"solid"
					},
					{
						"latitude":31.2504168,
						"longitude":121.3846385,
						"strokeStyle":"solid"
					}
				],
				[
					{
						"latitude":31.25054074,
						"longitude":121.3849037,
						"strokeStyle":"solid"
					},
					{
						"latitude":31.25065951,
						"longitude":121.3843327,
						"strokeStyle":"solid"
					}
				],
				[
					{
						"latitude":31.25065951,
						"longitude":121.3843327,
						"strokeStyle":"dashed"
					},
					{
						"latitude":31.25096823,
						"longitude":121.3829785,
						"strokeStyle":"dashed"
					}
				],
				[
					{
						"latitude":31.25096823,
						"longitude":121.3829785,
						"strokeStyle":"solid"
					},
					{
						"latitude":31.25098383,
						"longitude":121.3828885,
						"strokeStyle":"solid"
					}
				],
				[
					{
						"latitude":31.2528431,
						"longitude":121.3855663,
						"strokeStyle":"solid"
					},
					{
						"latitude":31.25332259,
						"longitude":121.3857343,
						"strokeStyle":"solid"
					}
				],
				[
					{
						"latitude":31.25332259,
						"longitude":121.3857343,
						"strokeStyle":"solid"
					},
					{
						"latitude":31.25338278,
						"longitude":121.3855155,
						"strokeStyle":"solid"
					}
				],
				[
					{
						"latitude":31.25332259,
						"longitude":121.3857343,
						"strokeStyle":"solid"
					},
					{
						"latitude":31.25367466,
						"longitude":121.3858537,
						"strokeStyle":"solid"
					}
				],
				[
					{
						"latitude":31.25367466,
						"longitude":121.3858537,
						"strokeStyle":"solid"
					},
					{
						"latitude":31.25402527,
						"longitude":121.3859856,
						"strokeStyle":"solid"
					}
				],
				[
					{
						"latitude":31.25402527,
						"longitude":121.3859856,
						"strokeStyle":"solid"
					},
					{
						"latitude":31.25437734,
						"longitude":121.3861146,
						"strokeStyle":"solid"
					}
				],
				[
					{
						"latitude":31.25437734,
						"longitude":121.3861146,
						"strokeStyle":"solid"
					},
					{
						"latitude":31.25536285,
						"longitude":121.3864793,
						"strokeStyle":"solid"
					}
				],
				[
					{
						"latitude":31.25536285,
						"longitude":121.3864793,
						"strokeStyle":"solid"
					},
					{
						"latitude":31.25558234,
						"longitude":121.3865582,
						"strokeStyle":"solid"
					}
				],
				[
					{
						"latitude":31.25558234,
						"longitude":121.3865582,
						"strokeStyle":"solid"
					},
					{
						"latitude":31.25575765,
						"longitude":121.3866252,
						"strokeStyle":"solid"
					}
				],
				[
					{
						"latitude":31.25575765,
						"longitude":121.3866252,
						"strokeStyle":"solid"
					},
					{
						"latitude":31.25575765,
						"longitude":121.3866252,
						"strokeStyle":"solid"
					}
				],
				[
					{
						"latitude":31.25575765,
						"longitude":121.3866252,
						"strokeStyle":"dashed"
					},
					{
						"latitude":31.25758279,
						"longitude":121.3872722,
						"strokeStyle":"dashed"
					}
				],
				[
					{
						"latitude":31.25758279,
						"longitude":121.3872722,
						"strokeStyle":"solid"
					},
					{
						"latitude":31.25772127,
						"longitude":121.3873268,
						"strokeStyle":"solid"
					}
				],
				[
					{
						"latitude":31.25772127,
						"longitude":121.3873268,
						"strokeStyle":"solid"
					},
					{
						"latitude":31.25803429,
						"longitude":121.387366,
						"strokeStyle":"solid"
					}
				]
			]
		},
		"57":{
			"pointPos":[
				{
					"id":1160,
					"name":"8489骊山中山",
					"type":1,
					"lineId":57,
					"latitude":31.25810913,
					"longitude":121.4451914,
					"ctime":1.603760685e+12,
					"mtime":1.603760859e+12,
					"isDeleted":0,
					"sortIndex":0
				},
				{
					"id":1161,
					"name":"7438骊山中山南",
					"type":1,
					"lineId":57,
					"latitude":31.2580648,
					"longitude":121.4452114,
					"ctime":1.603760685e+12,
					"mtime":1.603760859e+12,
					"isDeleted":0,
					"sortIndex":1
				},
				{
					"id":1162,
					"name":"骊12002",
					"type":2,
					"lineId":57,
					"latitude":31.25803231,
					"longitude":121.445231,
					"ctime":1.603760685e+12,
					"mtime":1.603760859e+12,
					"isDeleted":0,
					"sortIndex":2
				},
				{
					"id":1163,
					"name":"骊12201",
					"type":2,
					"lineId":57,
					"latitude":31.25721155,
					"longitude":121.4459492,
					"ctime":1.603760685e+12,
					"mtime":1.603760859e+12,
					"isDeleted":0,
					"sortIndex":3
				},
				{
					"id":1164,
					"name":"8488中山北骊山",
					"type":3,
					"lineId":57,
					"latitude":31.25724524,
					"longitude":121.4461353,
					"ctime":1.603760685e+12,
					"mtime":1.603760859e+12,
					"isDeleted":0,
					"sortIndex":4
				},
				{
					"id":1165,
					"name":"02161交通1401一",
					"type":3,
					"lineId":57,
					"latitude":31.25728097,
					"longitude":121.4463244,
					"ctime":1.603760685e+12,
					"mtime":1.603760859e+12,
					"isDeleted":0,
					"sortIndex":5
				},
				{
					"id":1166,
					"name":"02163内环交通西",
					"type":3,
					"lineId":57,
					"latitude":31.25742605,
					"longitude":121.447018,
					"ctime":1.603760685e+12,
					"mtime":1.603760859e+12,
					"isDeleted":0,
					"sortIndex":6
				},
				{
					"id":1167,
					"name":"骊12207",
					"type":0,
					"lineId":57,
					"latitude":31.25757721,
					"longitude":121.4477579,
					"ctime":1.603760685e+12,
					"mtime":1.603760859e+12,
					"isDeleted":0,
					"sortIndex":7
				},
				{
					"id":1168,
					"name":"骊12213",
					"type":0,
					"lineId":57,
					"latitude":31.25808475,
					"longitude":121.4502065,
					"ctime":1.603760685e+12,
					"mtime":1.603760859e+12,
					"isDeleted":0,
					"sortIndex":8
				},
				{
					"id":1169,
					"name":"骊12503",
					"type":2,
					"lineId":57,
					"latitude":31.25793751,
					"longitude":121.4501654,
					"ctime":1.603760685e+12,
					"mtime":1.603760859e+12,
					"isDeleted":0,
					"sortIndex":9
				},
				{
					"id":1170,
					"name":"骊12602",
					"type":2,
					"lineId":57,
					"latitude":31.25854534,
					"longitude":121.4501675,
					"ctime":1.603760685e+12,
					"mtime":1.603760859e+12,
					"isDeleted":0,
					"sortIndex":10
				},
				{
					"id":1171,
					"name":"骊12601",
					"type":2,
					"lineId":57,
					"latitude":31.25851061,
					"longitude":121.4500062,
					"ctime":1.603760685e+12,
					"mtime":1.603760859e+12,
					"isDeleted":0,
					"sortIndex":11
				},
				{
					"id":1172,
					"name":"骊12502",
					"type":2,
					"lineId":57,
					"latitude":31.25864107,
					"longitude":121.44966,
					"ctime":1.603760685e+12,
					"mtime":1.603760859e+12,
					"isDeleted":0,
					"sortIndex":12
				},
				{
					"id":1173,
					"name":"8492沪太中山北",
					"type":1,
					"lineId":57,
					"latitude":31.25875862,
					"longitude":121.4495973,
					"ctime":1.603760685e+12,
					"mtime":1.603760859e+12,
					"isDeleted":0,
					"sortIndex":13
				},
				{
					"id":1174,
					"name":"02156骊山中学",
					"type":3,
					"lineId":57,
					"latitude":31.2579792,
					"longitude":121.4452623,
					"ctime":1.603760685e+12,
					"mtime":1.603760859e+12,
					"isDeleted":0,
					"sortIndex":14
				},
				{
					"id":1175,
					"name":"骊12004骊12骊南",
					"type":2,
					"lineId":57,
					"latitude":31.25790804,
					"longitude":121.4453065,
					"ctime":1.603760685e+12,
					"mtime":1.603760859e+12,
					"isDeleted":0,
					"sortIndex":15
				},
				{
					"id":1176,
					"name":"骊12200",
					"type":0,
					"lineId":57,
					"latitude":31.25714321,
					"longitude":121.4455495,
					"ctime":1.603760685e+12,
					"mtime":1.603760859e+12,
					"isDeleted":0,
					"sortIndex":16
				},
				{
					"id":1177,
					"name":"02157染料研究",
					"type":3,
					"lineId":57,
					"latitude":31.25688662,
					"longitude":121.4455895,
					"ctime":1.603760685e+12,
					"mtime":1.603760859e+12,
					"isDeleted":0,
					"sortIndex":17
				},
				{
					"id":1178,
					"name":"骊12102",
					"type":0,
					"lineId":57,
					"latitude":31.25656207,
					"longitude":121.4456049,
					"ctime":1.603760685e+12,
					"mtime":1.603760859e+12,
					"isDeleted":0,
					"sortIndex":18
				},
				{
					"id":1179,
					"name":"02160宜川仪表",
					"type":3,
					"lineId":57,
					"latitude":31.25622336,
					"longitude":121.4454682,
					"ctime":1.603760685e+12,
					"mtime":1.603760859e+12,
					"isDeleted":0,
					"sortIndex":19
				},
				{
					"id":1180,
					"name":"02159龚家宅交通",
					"type":3,
					"lineId":57,
					"latitude":31.25607417,
					"longitude":121.4453562,
					"ctime":1.603760685e+12,
					"mtime":1.603760859e+12,
					"isDeleted":0,
					"sortIndex":20
				},
				{
					"id":1181,
					"name":"8490交通西中山",
					"type":1,
					"lineId":57,
					"latitude":31.25731482,
					"longitude":121.4475842,
					"ctime":1.603760685e+12,
					"mtime":1.603760859e+12,
					"isDeleted":0,
					"sortIndex":21
				},
				{
					"id":1182,
					"name":"7442中山内1022",
					"type":1,
					"lineId":57,
					"latitude":31.25811032,
					"longitude":121.4503052,
					"ctime":1.603760685e+12,
					"mtime":1.603760859e+12,
					"isDeleted":0,
					"sortIndex":22
				},
				{
					"id":1183,
					"name":"8491沪太中山南",
					"type":1,
					"lineId":57,
					"latitude":31.25774673,
					"longitude":121.450264,
					"ctime":1.603760685e+12,
					"mtime":1.603760859e+12,
					"isDeleted":0,
					"sortIndex":23
				},
				{
					"id":1184,
					"name":"8524中山外沪太东",
					"type":1,
					"lineId":57,
					"latitude":31.25861671,
					"longitude":121.4505099,
					"ctime":1.603760685e+12,
					"mtime":1.603760859e+12,
					"isDeleted":0,
					"sortIndex":24
				}
			],
			"stationPos":[
				{
					"id":9,
					"name":"kkk",
					"address":"",
					"latitude":31.26627,
					"longitude":121.46776,
					"ctime":1.590735332e+12,
					"mtime":1.590735332e+12,
					"isDeleted":0,
					"stationType":0
				}
			],
			"bindList":[
				[
					{
						"latitude":31.25810913,
						"longitude":121.4451914,
						"strokeStyle":"solid"
					},
					{
						"latitude":31.2580648,
						"longitude":121.4452114,
						"strokeStyle":"solid"
					}
				],
				[
					{
						"latitude":31.2580648,
						"longitude":121.4452114,
						"strokeStyle":"solid"
					},
					{
						"latitude":31.25803231,
						"longitude":121.445231,
						"strokeStyle":"solid"
					}
				],
				[
					{
						"latitude":31.25803231,
						"longitude":121.445231,
						"strokeStyle":"dashed"
					},
					{
						"latitude":31.25721155,
						"longitude":121.4459492,
						"strokeStyle":"dashed"
					}
				],
				[
					{
						"latitude":31.25721155,
						"longitude":121.4459492,
						"strokeStyle":"solid"
					},
					{
						"latitude":31.25724524,
						"longitude":121.4461353,
						"strokeStyle":"solid"
					}
				],
				[
					{
						"latitude":31.25724524,
						"longitude":121.4461353,
						"strokeStyle":"solid"
					},
					{
						"latitude":31.25728097,
						"longitude":121.4463244,
						"strokeStyle":"solid"
					}
				],
				[
					{
						"latitude":31.25728097,
						"longitude":121.4463244,
						"strokeStyle":"solid"
					},
					{
						"latitude":31.25742605,
						"longitude":121.447018,
						"strokeStyle":"solid"
					}
				],
				[
					{
						"latitude":31.25742605,
						"longitude":121.447018,
						"strokeStyle":"solid"
					},
					{
						"latitude":31.25757721,
						"longitude":121.4477579,
						"strokeStyle":"solid"
					}
				],
				[
					{
						"latitude":31.25757721,
						"longitude":121.4477579,
						"strokeStyle":"solid"
					},
					{
						"latitude":31.25808475,
						"longitude":121.4502065,
						"strokeStyle":"solid"
					}
				],
				[
					{
						"latitude":31.25808475,
						"longitude":121.4502065,
						"strokeStyle":"solid"
					},
					{
						"latitude":31.25793751,
						"longitude":121.4501654,
						"strokeStyle":"solid"
					}
				],
				[
					{
						"latitude":31.25793751,
						"longitude":121.4501654,
						"strokeStyle":"dashed"
					},
					{
						"latitude":31.25854534,
						"longitude":121.4501675,
						"strokeStyle":"dashed"
					}
				],
				[
					{
						"latitude":31.25854534,
						"longitude":121.4501675,
						"strokeStyle":"solid"
					},
					{
						"latitude":31.25851061,
						"longitude":121.4500062,
						"strokeStyle":"solid"
					}
				],
				[
					{
						"latitude":31.25851061,
						"longitude":121.4500062,
						"strokeStyle":"dashed"
					},
					{
						"latitude":31.25864107,
						"longitude":121.44966,
						"strokeStyle":"dashed"
					}
				],
				[
					{
						"latitude":31.25864107,
						"longitude":121.44966,
						"strokeStyle":"solid"
					},
					{
						"latitude":31.25875862,
						"longitude":121.4495973,
						"strokeStyle":"solid"
					}
				],
				[
					{
						"latitude":31.25803231,
						"longitude":121.445231,
						"strokeStyle":"solid"
					},
					{
						"latitude":31.2579792,
						"longitude":121.4452623,
						"strokeStyle":"solid"
					}
				],
				[
					{
						"latitude":31.2579792,
						"longitude":121.4452623,
						"strokeStyle":"solid"
					},
					{
						"latitude":31.25790804,
						"longitude":121.4453065,
						"strokeStyle":"solid"
					}
				],
				[
					{
						"latitude":31.25721155,
						"longitude":121.4459492,
						"strokeStyle":"solid"
					},
					{
						"latitude":31.25714321,
						"longitude":121.4455495,
						"strokeStyle":"solid"
					}
				],
				[
					{
						"latitude":31.25714321,
						"longitude":121.4455495,
						"strokeStyle":"solid"
					},
					{
						"latitude":31.25688662,
						"longitude":121.4455895,
						"strokeStyle":"solid"
					}
				],
				[
					{
						"latitude":31.25688662,
						"longitude":121.4455895,
						"strokeStyle":"solid"
					},
					{
						"latitude":31.25656207,
						"longitude":121.4456049,
						"strokeStyle":"solid"
					}
				],
				[
					{
						"latitude":31.25656207,
						"longitude":121.4456049,
						"strokeStyle":"solid"
					},
					{
						"latitude":31.25622336,
						"longitude":121.4454682,
						"strokeStyle":"solid"
					}
				],
				[
					{
						"latitude":31.25622336,
						"longitude":121.4454682,
						"strokeStyle":"solid"
					},
					{
						"latitude":31.25607417,
						"longitude":121.4453562,
						"strokeStyle":"solid"
					}
				],
				[
					{
						"latitude":31.25757721,
						"longitude":121.4477579,
						"strokeStyle":"solid"
					},
					{
						"latitude":31.25731482,
						"longitude":121.4475842,
						"strokeStyle":"solid"
					}
				],
				[
					{
						"latitude":31.25808475,
						"longitude":121.4502065,
						"strokeStyle":"solid"
					},
					{
						"latitude":31.25811032,
						"longitude":121.4503052,
						"strokeStyle":"solid"
					}
				],
				[
					{
						"latitude":31.25793751,
						"longitude":121.4501654,
						"strokeStyle":"solid"
					},
					{
						"latitude":31.25774673,
						"longitude":121.450264,
						"strokeStyle":"solid"
					}
				],
				[
					{
						"latitude":31.25854534,
						"longitude":121.4501675,
						"strokeStyle":"solid"
					},
					{
						"latitude":31.25861671,
						"longitude":121.4505099,
						"strokeStyle":"solid"
					}
				]
			]
		},
		"58":{
			"pointPos":[
				{
					"id":1185,
					"name":"8188铜川真光（柱上断路器）",
					"type":1,
					"lineId":58,
					"latitude":31.25269168,
					"longitude":121.3852832,
					"ctime":1.603760685e+12,
					"mtime":1.603760859e+12,
					"isDeleted":0,
					"sortIndex":0
				},
				{
					"id":1186,
					"name":"光36008",
					"type":2,
					"lineId":58,
					"latitude":31.25258116,
					"longitude":121.3852496,
					"ctime":1.603760685e+12,
					"mtime":1.603760859e+12,
					"isDeleted":0,
					"sortIndex":1
				},
				{
					"id":1187,
					"name":"光36007",
					"type":2,
					"lineId":58,
					"latitude":31.25329146,
					"longitude":121.3836458,
					"ctime":1.603760685e+12,
					"mtime":1.603760859e+12,
					"isDeleted":0,
					"sortIndex":2
				},
				{
					"id":1188,
					"name":"05385真光文化馆",
					"type":3,
					"lineId":58,
					"latitude":31.25332533,
					"longitude":121.3834875,
					"ctime":1.603760685e+12,
					"mtime":1.603760859e+12,
					"isDeleted":0,
					"sortIndex":3
				},
				{
					"id":1189,
					"name":"B5349铜川1897北乙",
					"type":3,
					"lineId":58,
					"latitude":31.25335006,
					"longitude":121.3833687,
					"ctime":1.603760685e+12,
					"mtime":1.603760859e+12,
					"isDeleted":0,
					"sortIndex":4
				},
				{
					"id":1190,
					"name":"B5331铜川1897南乙",
					"type":3,
					"lineId":58,
					"latitude":31.25337569,
					"longitude":121.3832426,
					"ctime":1.603760685e+12,
					"mtime":1.603760859e+12,
					"isDeleted":0,
					"sortIndex":5
				},
				{
					"id":1191,
					"name":"A5327铜川1897甲",
					"type":3,
					"lineId":58,
					"latitude":31.25339308,
					"longitude":121.3831506,
					"ctime":1.603760685e+12,
					"mtime":1.603760859e+12,
					"isDeleted":0,
					"sortIndex":6
				},
				{
					"id":1192,
					"name":"光36002",
					"type":2,
					"lineId":58,
					"latitude":31.25341961,
					"longitude":121.3830043,
					"ctime":1.603760685e+12,
					"mtime":1.603760859e+12,
					"isDeleted":0,
					"sortIndex":7
				},
				{
					"id":1193,
					"name":"6734铜川高陵（柱上断路器）",
					"type":1,
					"lineId":58,
					"latitude":31.25343516,
					"longitude":121.382915,
					"ctime":1.603760685e+12,
					"mtime":1.603760859e+12,
					"isDeleted":0,
					"sortIndex":8
				},
				{
					"id":1194,
					"name":"金05302",
					"type":0,
					"lineId":58,
					"latitude":31.25326002,
					"longitude":121.3825174,
					"ctime":1.603760685e+12,
					"mtime":1.603760859e+12,
					"isDeleted":0,
					"sortIndex":9
				},
				{
					"id":1195,
					"name":"金05010",
					"type":0,
					"lineId":58,
					"latitude":31.25353933,
					"longitude":121.3822238,
					"ctime":1.603760685e+12,
					"mtime":1.603760859e+12,
					"isDeleted":0,
					"sortIndex":10
				},
				{
					"id":1196,
					"name":"A5392金汤北甲",
					"type":3,
					"lineId":58,
					"latitude":31.25361807,
					"longitude":121.3818703,
					"ctime":1.603760685e+12,
					"mtime":1.603760859e+12,
					"isDeleted":0,
					"sortIndex":11
				},
				{
					"id":1197,
					"name":"B5396铜川2060西乙",
					"type":3,
					"lineId":58,
					"latitude":31.25386214,
					"longitude":121.3804096,
					"ctime":1.603760685e+12,
					"mtime":1.603760859e+12,
					"isDeleted":0,
					"sortIndex":12
				},
				{
					"id":1198,
					"name":"8211铜川万镇东",
					"type":1,
					"lineId":58,
					"latitude":31.25392778,
					"longitude":121.3800163,
					"ctime":1.603760685e+12,
					"mtime":1.603760859e+12,
					"isDeleted":0,
					"sortIndex":13
				},
				{
					"id":1199,
					"name":"05399高陵铜川南",
					"type":3,
					"lineId":58,
					"latitude":31.25286989,
					"longitude":121.3823645,
					"ctime":1.603760685e+12,
					"mtime":1.603760859e+12,
					"isDeleted":0,
					"sortIndex":14
				},
				{
					"id":1200,
					"name":"金05308",
					"type":0,
					"lineId":58,
					"latitude":31.25163789,
					"longitude":121.3818977,
					"ctime":1.603760685e+12,
					"mtime":1.603760859e+12,
					"isDeleted":0,
					"sortIndex":15
				},
				{
					"id":1201,
					"name":"金05301-2",
					"type":0,
					"lineId":58,
					"latitude":31.25376029,
					"longitude":121.382453,
					"ctime":1.603760685e+12,
					"mtime":1.603760859e+12,
					"isDeleted":0,
					"sortIndex":16
				},
				{
					"id":1202,
					"name":"金05301-1",
					"type":0,
					"lineId":58,
					"latitude":31.25372103,
					"longitude":121.3827457,
					"ctime":1.603760685e+12,
					"mtime":1.603760859e+12,
					"isDeleted":0,
					"sortIndex":17
				},
				{
					"id":1203,
					"name":"8212高陵铜川",
					"type":1,
					"lineId":58,
					"latitude":31.25379182,
					"longitude":121.3827171,
					"ctime":1.603760685e+12,
					"mtime":1.603760859e+12,
					"isDeleted":0,
					"sortIndex":18
				}
			],
			"stationPos":[
				{
					"id":9,
					"name":"kkk",
					"address":"",
					"latitude":31.26627,
					"longitude":121.46776,
					"ctime":1.590735332e+12,
					"mtime":1.590735332e+12,
					"isDeleted":0,
					"stationType":0
				}
			],
			"bindList":[
				[
					{
						"latitude":31.25269168,
						"longitude":121.3852832,
						"strokeStyle":"solid"
					},
					{
						"latitude":31.25258116,
						"longitude":121.3852496,
						"strokeStyle":"solid"
					}
				],
				[
					{
						"latitude":31.25258116,
						"longitude":121.3852496,
						"strokeStyle":"dashed"
					},
					{
						"latitude":31.25329146,
						"longitude":121.3836458,
						"strokeStyle":"dashed"
					}
				],
				[
					{
						"latitude":31.25329146,
						"longitude":121.3836458,
						"strokeStyle":"solid"
					},
					{
						"latitude":31.25332533,
						"longitude":121.3834875,
						"strokeStyle":"solid"
					}
				],
				[
					{
						"latitude":31.25332533,
						"longitude":121.3834875,
						"strokeStyle":"solid"
					},
					{
						"latitude":31.25335006,
						"longitude":121.3833687,
						"strokeStyle":"solid"
					}
				],
				[
					{
						"latitude":31.25335006,
						"longitude":121.3833687,
						"strokeStyle":"solid"
					},
					{
						"latitude":31.25337569,
						"longitude":121.3832426,
						"strokeStyle":"solid"
					}
				],
				[
					{
						"latitude":31.25337569,
						"longitude":121.3832426,
						"strokeStyle":"solid"
					},
					{
						"latitude":31.25339308,
						"longitude":121.3831506,
						"strokeStyle":"solid"
					}
				],
				[
					{
						"latitude":31.25339308,
						"longitude":121.3831506,
						"strokeStyle":"solid"
					},
					{
						"latitude":31.25341961,
						"longitude":121.3830043,
						"strokeStyle":"solid"
					}
				],
				[
					{
						"latitude":31.25341961,
						"longitude":121.3830043,
						"strokeStyle":"solid"
					},
					{
						"latitude":31.25343516,
						"longitude":121.382915,
						"strokeStyle":"solid"
					}
				],
				[
					{
						"latitude":31.25343516,
						"longitude":121.382915,
						"strokeStyle":"solid"
					},
					{
						"latitude":31.25326002,
						"longitude":121.3825174,
						"strokeStyle":"solid"
					}
				],
				[
					{
						"latitude":31.25326002,
						"longitude":121.3825174,
						"strokeStyle":"solid"
					},
					{
						"latitude":31.25353933,
						"longitude":121.3822238,
						"strokeStyle":"solid"
					}
				],
				[
					{
						"latitude":31.25353933,
						"longitude":121.3822238,
						"strokeStyle":"solid"
					},
					{
						"latitude":31.25361807,
						"longitude":121.3818703,
						"strokeStyle":"solid"
					}
				],
				[
					{
						"latitude":31.25361807,
						"longitude":121.3818703,
						"strokeStyle":"solid"
					},
					{
						"latitude":31.25386214,
						"longitude":121.3804096,
						"strokeStyle":"solid"
					}
				],
				[
					{
						"latitude":31.25386214,
						"longitude":121.3804096,
						"strokeStyle":"solid"
					},
					{
						"latitude":31.25392778,
						"longitude":121.3800163,
						"strokeStyle":"solid"
					}
				],
				[
					{
						"latitude":31.25326002,
						"longitude":121.3825174,
						"strokeStyle":"solid"
					},
					{
						"latitude":31.25286989,
						"longitude":121.3823645,
						"strokeStyle":"solid"
					}
				],
				[
					{
						"latitude":31.25286989,
						"longitude":121.3823645,
						"strokeStyle":"solid"
					},
					{
						"latitude":31.25163789,
						"longitude":121.3818977,
						"strokeStyle":"solid"
					}
				],
				[
					{
						"latitude":31.25353933,
						"longitude":121.3822238,
						"strokeStyle":"solid"
					},
					{
						"latitude":31.25376029,
						"longitude":121.382453,
						"strokeStyle":"solid"
					}
				],
				[
					{
						"latitude":31.25376029,
						"longitude":121.382453,
						"strokeStyle":"solid"
					},
					{
						"latitude":31.25372103,
						"longitude":121.3827457,
						"strokeStyle":"solid"
					}
				],
				[
					{
						"latitude":31.25372103,
						"longitude":121.3827457,
						"strokeStyle":"solid"
					},
					{
						"latitude":31.25379182,
						"longitude":121.3827171,
						"strokeStyle":"solid"
					}
				]
			]
		},
		"59":{
			"pointPos":[
				{
					"id":1204,
					"name":"8576光复恒丰",
					"type":1,
					"lineId":59,
					"latitude":31.23913532,
					"longitude":121.4590889,
					"ctime":1.603760685e+12,
					"mtime":1.603760859e+12,
					"isDeleted":0,
					"sortIndex":0
				},
				{
					"id":1205,
					"name":"01011供销合作",
					"type":3,
					"lineId":59,
					"latitude":31.23930875,
					"longitude":121.4592752,
					"ctime":1.603760685e+12,
					"mtime":1.603760859e+12,
					"isDeleted":0,
					"sortIndex":1
				},
				{
					"id":1206,
					"name":"7503光复恒丰东（柱上断路器）",
					"type":1,
					"lineId":59,
					"latitude":31.23953915,
					"longitude":121.4594938,
					"ctime":1.603760685e+12,
					"mtime":1.603760859e+12,
					"isDeleted":0,
					"sortIndex":2
				},
				{
					"id":1207,
					"name":"00996光复梅园",
					"type":3,
					"lineId":59,
					"latitude":31.24090037,
					"longitude":121.4607125,
					"ctime":1.603760685e+12,
					"mtime":1.603760859e+12,
					"isDeleted":0,
					"sortIndex":3
				},
				{
					"id":1208,
					"name":"00995阳城宾馆",
					"type":3,
					"lineId":59,
					"latitude":31.24109076,
					"longitude":121.4609954,
					"ctime":1.603760685e+12,
					"mtime":1.603760859e+12,
					"isDeleted":0,
					"sortIndex":4
				},
				{
					"id":1209,
					"name":"08380北横光复施工",
					"type":3,
					"lineId":59,
					"latitude":31.24118229,
					"longitude":121.4612365,
					"ctime":1.603760685e+12,
					"mtime":1.603760859e+12,
					"isDeleted":0,
					"sortIndex":5
				},
				{
					"id":1210,
					"name":"00994内河一装卸",
					"type":3,
					"lineId":59,
					"latitude":31.24124644,
					"longitude":121.4614276,
					"ctime":1.603760685e+12,
					"mtime":1.603760859e+12,
					"isDeleted":0,
					"sortIndex":6
				},