{
  "pointResponse": {
    "14": {
      "bindList": [
        [
          {
            "latitude": 31.17811,
            "longitude": 121.58726,
            "strokeStyle": "dashed"
          },
          {
            "latitude": 31.23508,
            "longitude": 121.57043,
            "strokeStyle": "dashed"
          }
        ],
        [
          {
            "latitude": 31.16666,
            "longitude": 121.52855,
            "strokeStyle": "solid"
          },
          {
            "latitude": 31.23479,
            "longitude": 121.5519,
            "strokeStyle": "solid"
          }
        ]
      ],
      "pointPos": [
        {
          "id": 501,
          "name": "2",
          "type": 1,
          "lineId": 14,
          "latitude": 31.17811,
          "longitude": 121.58726,
          "ctime": 1584194659000,
          "mtime": 1584195163000,
          "isDeleted": 0,
          "sortIndex": 0
        },
        {
          "id": 502,
          "name": "4",
          "type": 3,
          "lineId": 14,
          "latitude": 31.23508,
          "longitude": 121.57043,
          "ctime": 1584194659000,
          "mtime": 1584195162000,
          "isDeleted": 0,
          "sortIndex": 1
        },
        {
          "id": 503,
          "name": "1",
          "type": 0,
          "lineId": 14,
          "latitude": 31.16666,
          "longitude": 121.52855,
          "ctime": 1584194659000,
          "mtime": 1584195165000,
          "isDeleted": 0,
          "sortIndex": 2
        },
        {
          "id": 504,
          "name": "3",
          "type": 2,
          "lineId": 14,
          "latitude": 31.23479,
          "longitude": 121.5519,
          "ctime": 1584194659000,
          "mtime": 1584195091000,
          "isDeleted": 0,
          "sortIndex": 3
        },
        {
          "id": 505,
          "name": "dfsdfsdf",
          "type": 2,
          "lineId": 14,
          "latitude": 31.21747,
          "longitude": 121.61266,
          "ctime": 1584195100000,
          "mtime": 1584195160000,
          "isDeleted": 0,
          "sortIndex": 4
        },
        {
          "id": 506,
          "name": "dianxiangan",
          "type": 0,
          "lineId": 14,
          "latitude": 31.29172,
          "longitude": 121.63223,
          "ctime": 1584196823000,
          "mtime": 1584196830000,
          "isDeleted": 0,
          "sortIndex": 5
        },
        {
          "id": 507,
          "name": "zhadao",
          "type": 1,
          "lineId": 14,
          "latitude": 31.27647,
          "longitude": 121.65627,
          "ctime": 1584196834000,
          "mtime": 1584196837000,
          "isDeleted": 0,
          "sortIndex": 6
        },
        {
          "id": 508,
          "name": "dianlan",
          "type": 2,
          "lineId": 14,
          "latitude": 31.25123,
          "longitude": 121.65901,
          "ctime": 1584196841000,
          "mtime": 1584196844000,
          "isDeleted": 0,
          "sortIndex": 7
        },
        {
          "id": 509,
          "name": "rongsi",
          "type": 3,
          "lineId": 14,
          "latitude": 31.29231,
          "longitude": 121.60545,
          "ctime": 1584196847000,
          "mtime": 1584196849000,
          "isDeleted": 0,
          "sortIndex": 8
        },
        {
          "id": 510,
          "name": "dianzha",
          "type": 4,
          "lineId": 14,
          "latitude": 31.2706,
          "longitude": 121.59241,
          "ctime": 1584196853000,
          "mtime": 1584196857000,
          "isDeleted": 0,
          "sortIndex": 9
        }
      ],
      "stationPos": [
        {
          "id": 46,
          "name": "dddd",
          "address": "",
          "latitude": 31.1837,
          "longitude": 121.57318,
          "ctime": 1583606381000,
          "mtime": 1583606381000,
          "isDeleted": 0
        },
        {
          "id": 47,
          "name": "sdfsdf",
          "address": "",
          "latitude": 31.22833,
          "longitude": 121.58142,
          "ctime": 1583606381000,
          "mtime": 1583606381000,
          "isDeleted": 0
        },
        {
          "id": 48,
          "name": "fff",
          "address": "",
          "latitude": 31.20279,
          "longitude": 121.60202,
          "ctime": 1583606381000,
          "mtime": 1583606381000,
          "isDeleted": 0
        }
      ]
    },
    "15": {
      "bindList": [],
      "pointPos": [],
      "stationPos": [
        {
          "id": 46,
          "name": "dddd",
          "address": "",
          "latitude": 31.1837,
          "longitude": 121.57318,
          "ctime": 1583606381000,
          "mtime": 1583606381000,
          "isDeleted": 0
        },
        {
          "id": 47,
          "name": "sdfsdf",
          "address": "",
          "latitude": 31.22833,
          "longitude": 121.58142,
          "ctime": 1583606381000,
          "mtime": 1583606381000,
          "isDeleted": 0
        },
        {
          "id": 48,
          "name": "fff",
          "address": "",
          "latitude": 31.20279,
          "longitude": 121.60202,
          "ctime": 1583606381000,
          "mtime": 1583606381000,
          "isDeleted": 0
        }
      ]
    }
  },
  "lines": [
    {
      "id": 14,
      "name": "tttt",
      "pointCount": 10,
      "ctime": "2020-03-08",
      "mtime": "2020-03-08"
    },
    {
      "id": 15,
      "name": "tttt",
      "pointCount": 0,
      "ctime": "2020-03-08",
      "mtime": "2020-03-08"
    }
  ]
}
